city,country,datetime,lat,long,maxtemp,humidity,cloudiness,windspeed
Punta Arenas,CL,1633488223,-53.15,-70.9167,42.91,61,0,12.66
Ushuaia,AR,1633488224,-54.8,-68.3,38.86,60,0,6.91
Bluff,NZ,1633488225,-46.6,168.3333,65.8,80,100,7.94
Santa Maria,BR,1633488227,-29.6842,-53.8069,58.3,77,0,8.05
Mutare,ZW,1633488228,-18.9707,32.6709,60.37,95,55,3.69
Rikitea,PF,1633488229,-23.1203,-134.9692,73.45,80,86,21.34
Tuktoyaktuk,CA,1633488231,69.4541,-133.0374,32.0,86,40,14.97
Bambous Virieux,MU,1633488232,-20.3428,57.7575,70.21,94,40,5.75
Provideniya,RU,1633488236,64.3833,-173.3,39.31,87,90,8.95
Naze,JP,1633488238,28.3667,129.4833,83.32,67,40,16.44
Port Lincoln,AU,1633488127,-34.7333,135.8667,66.99,44,100,7.63
Richards Bay,ZA,1633488240,-28.783,32.0377,65.37,94,100,7.54
Mahébourg,MU,1633488242,-20.4081,57.7,70.25,94,40,5.75
Sitka,US,1633488243,57.0531,-135.33,51.69,50,1,12.66
Cape Town,ZA,1633487964,-33.9258,18.4232,60.28,63,0,4.0
Jamestown,US,1633488245,42.097,-79.2353,64.09,97,75,3.0
Saskylakh,RU,1633488247,71.9167,114.0833,23.09,95,100,1.54
Kalmunai,LK,1633488249,7.4167,81.8167,82.17,73,93,7.23
Ushtobe,KZ,1633488250,45.2514,77.9838,38.71,49,76,5.5
Airai,TL,1633488020,-8.9266,125.4092,80.89,32,79,4.27
Yellowknife,CA,1633488253,62.456,-114.3525,39.42,100,75,3.44
Hamilton,US,1633488031,39.1834,-84.5333,72.45,86,75,3.44
Lebu,CL,1633488255,-37.6167,-73.65,45.36,79,0,14.76
Safi,MA,1633488257,32.2994,-9.2372,67.73,66,93,15.26
Sindou,BF,1633488258,10.6667,-5.1667,75.24,76,1,2.75
Panabá,MX,1633488259,21.2833,-88.2667,75.25,90,18,6.6
Khatanga,RU,1633488261,71.9667,102.5,31.8,99,100,8.12
Darnah,LY,1633488262,32.767,22.6367,70.86,67,0,19.75
Torbay,CA,1633488264,47.6666,-52.7314,44.76,86,75,13.8
Mīzan Teferī,ET,1633488266,6.9833,35.5833,60.94,96,96,1.68
Zaysan,KZ,1633488267,47.4667,84.8667,34.92,95,100,11.3
Pisco,PE,1633488268,-13.7,-76.2167,62.65,82,100,13.8
Kieta,PG,1633488270,-6.2167,155.6333,84.99,68,72,5.06
Hue,VN,1633488070,16.4667,107.6,82.51,83,75,8.05
Butaritari,KI,1633488272,3.0707,172.7902,82.36,68,10,12.57
Port Hedland,AU,1633488273,-20.3167,118.5667,91.45,13,0,16.11
Vaini,TO,1633488275,-21.2,-175.2,80.76,83,75,6.91
Valley City,US,1633488054,46.9233,-98.0032,68.52,49,1,10.36
Loamneş,RO,1633488277,45.9333,24.1,48.38,62,0,6.91
Mataura,NZ,1633488279,-46.1927,168.8643,65.48,51,100,4.38
Mirny,RU,1633488281,62.5353,113.9611,33.69,63,32,11.48
Nebbi,UG,1633488282,2.4783,31.0889,64.42,89,100,3.96
Nikolskoye,RU,1633488283,59.7035,30.7861,45.88,82,97,10.76
Albany,US,1633488075,42.6001,-73.9662,59.81,96,98,0.34
Saint-Philippe,RE,1633488286,-21.3585,55.7679,68.22,80,18,3.87
Saint George,US,1633488287,37.1041,-113.5841,66.34,74,1,1.99
Busselton,AU,1633488288,-33.65,115.3333,58.05,57,26,8.63
Hermanus,ZA,1633488177,-34.4187,19.2345,56.8,86,80,16.98
Hilo,US,1633488024,19.7297,-155.09,83.28,76,75,10.36
George Town,MY,1633488089,5.4112,100.3354,80.53,91,40,5.75
Siguiri,GN,1633488294,11.6667,-9.5,72.82,86,84,1.81
Santa Fe,AR,1633488055,-31.6333,-60.7,62.98,55,0,1.01
Ilulissat,GL,1633488296,69.2167,-51.1,30.22,40,100,25.32
Yarim,YE,1633488298,14.298,44.3779,57.36,54,2,5.1
Yar-Sale,RU,1633488299,66.8333,70.8333,37.29,89,16,11.59
Boyolangu,ID,1633488300,-8.1181,111.8935,80.56,64,94,9.84
Umluj,SA,1633488302,25.0213,37.2685,78.6,56,0,9.48
Geraldton,AU,1633488308,-28.7667,114.6,66.61,39,0,10.36
Hong Kong,HK,1633488115,22.2855,114.1577,89.96,59,4,1.01
Pontianak,ID,1633488313,-0.0333,109.3333,85.98,70,20,6.91
Pacific Grove,US,1633488314,36.6177,-121.9166,65.61,84,75,1.99
Ribeira Grande,PT,1633488316,38.5167,-28.7,72.97,86,100,17.0
Azua,DO,1633488317,18.4532,-70.7349,76.06,80,100,5.06
Lompoc,US,1633488318,34.6391,-120.4579,65.79,85,1,4.61
San Patricio,US,1633488322,28.017,-97.5169,79.84,49,0,5.44
Ouro Sogui,SN,1633488323,15.6064,-13.3211,85.3,52,57,11.5
Comodoro Rivadavia,AR,1633488132,-45.8667,-67.5,37.26,65,0,5.75
Kerema,PG,1633488327,-7.9631,145.7785,82.36,76,100,7.47
Codrington,AU,1633488328,-38.2667,141.9667,60.35,66,95,9.84
Arraial do Cabo,BR,1633488311,-22.9661,-42.0278,69.67,86,100,13.6
Toowoomba,AU,1633488330,-27.55,151.9667,75.94,17,0,6.11
Vitim,RU,1633488332,59.4511,112.5578,36.03,69,36,5.91
Margate,GB,1633488333,51.3813,1.3862,52.92,73,97,3.0
Nicoya,CR,1633488130,10.1483,-85.452,78.35,90,97,1.92
Ancud,CL,1633488335,-41.8697,-73.8203,42.33,68,0,8.41
Asbestovskiy,RU,1633488337,57.7557,61.3967,33.75,82,99,3.89
Merzifon,TR,1633488338,40.8733,35.4631,47.66,76,75,0.0
Tecolutla,MX,1633488340,20.4833,-97.0167,76.57,80,76,8.01
Jinji,CN,1633488341,23.2281,110.8261,90.9,49,2,5.28
Itaituba,BR,1633488343,-4.2761,-55.9836,76.15,67,61,0.69
Kruisfontein,ZA,1633488346,-34.0033,24.7314,48.88,93,9,3.78
Carnarvon,AU,1633488347,-24.8667,113.6333,71.67,35,5,18.41
Wasco,US,1633488049,35.5941,-119.341,82.94,31,1,0.0
Ust'-Tarka,RU,1633488349,55.5672,75.705,31.23,72,10,10.94
Sanming,CN,1633488351,26.2486,117.6186,84.27,54,60,5.32
São João da Barra,BR,1633488353,-21.6403,-41.0511,71.58,89,100,11.72
Alofi,NU,1633488354,-19.0595,-169.9187,80.49,74,40,9.22
Muros,ES,1633488356,42.7762,-9.0603,59.23,96,52,6.13
Hauknes,NO,1633488357,66.2833,14.0667,45.79,94,89,2.1
Leh,IN,1633488358,34.1667,77.5833,46.58,46,0,4.21
Lodja,CD,1633488360,-3.4833,23.4333,68.61,99,100,2.44
Cockburn Town,TC,1633488361,21.4612,-71.1419,83.35,76,100,25.17
Cayenne,GF,1633488362,4.9333,-52.3333,82.09,81,20,1.99
Bredasdorp,ZA,1633488364,-34.5322,20.0403,56.28,97,61,7.0
Imeni Poliny Osipenko,RU,1633488365,52.4201,136.4853,47.44,41,27,4.56
Bonfim,BR,1633488366,3.0833,-59.95,81.91,60,63,8.23
Smithers,CA,1633488335,54.7804,-127.1743,39.52,70,90,3.44
Pevek,RU,1633488370,69.7008,170.3133,28.0,90,100,19.33
Avarua,CK,1633488371,-21.2078,-159.775,77.05,73,20,11.5
Gornyy,RU,1633488372,55.1153,83.9059,32.79,74,40,14.76
Grand-Santi,GF,1633488375,4.25,-54.3833,74.05,91,4,2.98
East London,ZA,1633488129,-33.0153,27.9116,60.78,87,50,9.4
Souillac,MU,1633488378,-20.5167,57.5167,71.37,94,40,5.75
Raja,SS,1633488380,8.4596,25.678,69.46,79,55,4.23
Cherskiy,RU,1633488381,68.75,161.3,19.67,94,94,5.91
Husavik,IS,1633488383,66.0449,-17.3389,35.51,82,100,5.61
La Santisima Trinidad,BO,1633488386,-14.8333,-64.9,74.03,66,97,3.58
Yangi Marg`ilon,UZ,1633488387,40.4272,71.7189,53.02,82,75,2.3
Dergachi,RU,1633488389,51.2328,48.7659,35.46,49,100,7.45
Auki,SB,1633488390,-8.7676,160.7034,84.61,69,29,5.01
Přerov,CZ,1633488391,49.4551,17.4509,64.33,67,96,8.99
Kungurtug,RU,1633488392,50.5994,97.5228,42.93,36,97,0.65
Shelburne,CA,1633488394,44.0787,-80.2041,58.89,100,4,3.58
Vila Velha,BR,1633488131,-20.3297,-40.2925,75.15,83,75,8.05
Southbridge,US,1633488396,42.0751,-72.0334,57.33,97,68,3.18
Kapaa,US,1633488398,22.0752,-159.319,84.18,70,40,1.99
Bac Lieu,VN,1633488401,9.285,105.7244,78.26,88,100,13.15
Keti Bandar,PK,1633488403,24.1447,67.4497,80.83,74,15,5.95
Kenora,CA,1633488137,49.8167,-94.4337,66.18,63,1,11.5
Copperas Cove,US,1633488405,31.1241,-97.9031,73.38,47,1,3.44
Hithadhoo,MV,1633488408,-0.6,73.0833,82.96,76,81,14.12
Khoy,IR,1633488410,38.5504,44.9535,46.02,84,82,1.23
Loikaw,MM,1633488411,19.6742,97.2094,79.3,70,46,1.99
Puerto Ayora,EC,1633488413,-0.7393,-90.3518,68.56,93,82,5.99
Broken Hill,AU,1633488414,-31.95,141.4333,76.71,13,0,16.11
Bagan,RU,1633488416,54.1001,77.6646,33.04,94,100,13.65
Bemidji,US,1633488418,47.4736,-94.8803,63.55,76,1,8.05
Saint-Augustin,CA,1633488190,51.226,-58.6502,48.45,61,78,7.67
Los Llanos de Aridane,ES,1633488420,28.6585,-17.9182,67.75,67,75,12.66
Zhangaözen,KZ,1633488422,43.3,52.8,44.26,52,99,21.09
Srednekolymsk,RU,1633488424,67.45,153.6833,26.56,66,83,10.56
Naruja,GE,1633488425,41.9069,41.9542,55.72,96,100,0.85
Berlevåg,NO,1633488427,70.8578,29.0864,50.0,76,27,25.88
Ponta do Sol,PT,1633488428,32.6667,-17.1,73.0,76,100,4.09
Castro,BR,1633488430,-24.7911,-50.0119,55.44,93,88,8.12
Vilyuysk,RU,1633488433,63.7553,121.6247,36.79,62,70,8.93
Mnogovershinnyy,RU,1633488434,53.9353,139.9242,40.98,59,95,10.98
Prince Rupert,CA,1633488336,54.3161,-130.3201,51.49,75,40,4.61
Shimoda,JP,1633488437,34.6667,138.95,81.1,58,12,14.12
Bengkulu,ID,1633488438,-3.8004,102.2655,81.45,72,100,1.52
Hambantota,LK,1633488439,6.1241,81.1185,79.14,100,40,9.22
Quatre Cocos,MU,1633488441,-20.2078,57.7625,71.1,80,39,6.26
Yerbogachën,RU,1633488442,61.2767,108.0108,33.84,64,36,10.98
Sinnamary,GF,1633488443,5.3833,-52.95,79.47,84,18,8.52
Palmer,US,1633488445,42.1584,-72.3287,57.61,85,90,0.0
Collingwood,CA,1633488359,44.4834,-80.2164,60.82,94,10,0.0
Laguna,US,1633488386,38.421,-121.4238,75.45,55,1,4.0
Mitsamiouli,KM,1633488449,-11.3847,43.2844,75.49,78,56,4.92
Grindavik,IS,1633488450,63.8424,-22.4338,42.75,81,75,9.22
Lagos,NG,1633488454,6.5833,3.75,79.12,93,100,0.22
Hasaki,JP,1633488455,35.7333,140.8333,79.29,76,69,21.45
Horodnytsya,UA,1633488456,50.807,27.3168,44.02,67,6,11.72
Hobart,AU,1633488459,-42.8794,147.3294,64.02,50,75,1.99
Ternate,ID,1633488460,0.8,127.4,84.27,67,70,7.56
Idanre,NG,1633488463,7.1127,5.1159,71.96,96,100,1.68
Kendari,ID,1633488464,-3.945,122.4989,89.08,56,75,4.41
Kaitangata,NZ,1633488465,-46.2817,169.8464,59.92,72,100,15.14
Beringovskiy,RU,1633488467,63.05,179.3167,33.96,82,100,17.45
Lavrentiya,RU,1633488468,65.5833,-171.0,36.37,99,100,5.28
Tabou,CI,1633488469,4.423,-7.3528,76.82,90,20,4.5
Rio Grande,BR,1633488471,-32.035,-52.0986,52.95,68,0,11.68
Port Alfred,ZA,1633488472,-33.5906,26.891,59.47,88,0,11.74
Freetown,SL,1633488474,8.484,-13.2299,80.31,74,40,5.75
Acaraú,BR,1633488476,-2.8856,-40.12,78.82,81,78,16.13
Bosaso,SO,1633488477,11.2842,49.1816,87.17,63,39,3.47
Tuatapere,NZ,1633488478,-46.1333,167.6833,65.82,62,100,1.28
Bethel,US,1633488257,41.3712,-73.414,61.38,90,90,0.0
Nouadhibou,MR,1633488482,20.931,-17.0347,69.78,83,0,17.27
New Norfolk,AU,1633488483,-42.7826,147.0587,63.66,45,90,5.01
Graaff-Reinet,ZA,1633488485,-32.2522,24.5308,48.61,84,6,1.23
Dobryanka,RU,1633488486,58.4619,56.4165,37.26,82,100,4.92
Kathu,TH,1633488487,7.9178,98.3332,79.7,99,100,15.55
Upernavik,GL,1633488490,72.7868,-56.1549,30.31,50,100,5.53
Dickinson,US,1633488491,29.4608,-95.0513,78.89,75,20,0.0
Severo-Kuril'sk,RU,1633488492,50.6789,156.125,45.32,61,55,19.57
Karratha,AU,1633488494,-20.7377,116.8463,85.33,20,1,7.47
Klaksvík,FO,1633488495,62.2266,-6.589,41.92,80,100,12.17
Faanui,PF,1633488496,-16.4833,-151.75,79.0,67,0,13.29
Chumikan,RU,1633488498,54.7183,135.315,45.7,45,54,14.83
Virginia Beach,US,1633488499,36.8529,-75.978,77.02,83,75,3.44
Yabrūd,SY,1633488500,33.9674,36.6574,46.53,50,0,2.55
Saint Paul Harbor,US,1633488501,57.79,-152.4072,47.71,87,20,3.44
Pangai,TO,1633488503,-19.8,-174.35,80.71,65,75,16.11
Lagoa,PT,1633488505,39.05,-27.9833,71.53,84,100,12.93
Belyy Yar,RU,1633488506,53.6039,91.3903,37.29,75,10,2.24
Qaanaaq,GL,1633488509,77.484,-69.3632,21.81,79,74,7.14
New Castle,US,1633488252,41.0037,-80.347,67.71,94,1,4.61
Aklavik,CA,1633488511,68.2191,-135.0107,34.52,90,11,6.08
La Ronge,CA,1633488513,55.1001,-105.2842,50.25,40,75,9.22
Peleduy,RU,1633488514,59.6289,112.7406,35.76,70,39,6.46
Balagansk,RU,1633488515,54.0103,103.0544,42.87,54,28,2.77
Syracuse,IT,1633488516,37.0881,15.2792,69.44,75,47,7.56
Guerrero Negro,MX,1633488376,27.9769,-114.0611,71.53,76,0,14.99
Kemijärvi,FI,1633488520,66.7131,27.4306,48.74,90,100,12.28
Beloha,MG,1633488521,-25.1667,45.05,61.11,81,0,5.84
Vardø,NO,1633488481,70.3705,31.1107,52.0,80,14,29.46
Port Elizabeth,ZA,1633488524,-33.918,25.5701,59.29,88,0,10.36
Luau,AO,1633488525,-10.7073,22.2247,68.59,82,100,2.04
Longyearbyen,SJ,1633488526,78.2186,15.6401,37.24,75,75,11.5
Broome,US,1633488528,42.2506,-75.833,65.46,81,90,5.75
Thompson,CA,1633488529,55.7435,-97.8558,50.16,40,75,9.22
Boa Vista,BR,1633488331,2.8197,-60.6733,84.18,58,0,8.05
Rundu,NA,1633488531,-17.9333,19.7667,71.55,56,100,4.12
Valmiera,LV,1633488533,57.5411,25.4275,49.41,63,41,14.05
Hirara,JP,1633488535,24.8,125.2833,87.66,74,75,18.41
Hualmay,PE,1633488537,-11.0964,-77.6139,62.13,85,60,8.19
Kudahuvadhoo,MV,1633488538,2.6708,72.8944,83.73,74,74,14.74
Tasiilaq,GL,1633488540,65.6145,-37.6368,33.96,68,0,5.84
Mahajanga,MG,1633488542,-15.7167,46.3167,73.42,94,20,8.05
Ciudad del Carmen,MX,1633488543,18.6333,-91.8333,82.13,77,10,10.85
Horsham,GB,1633488545,51.064,-0.3272,53.02,84,0,14.97
Sokoto,NG,1633488546,13.0609,5.239,80.55,36,64,5.17
Mar del Plata,AR,1633488478,-38.0023,-57.5575,55.09,56,0,3.0
Zyryanka,RU,1633488548,65.75,150.85,30.79,41,49,9.31
Chui,UY,1633488551,-33.6971,-53.4616,50.61,83,0,7.58
Kribi,CM,1633488552,2.95,9.9167,76.32,90,99,4.25
Chokurdakh,RU,1633488553,70.6333,147.9167,26.46,88,100,14.43
Kupang,ID,1633488555,-10.1667,123.5833,85.1,60,29,10.25
Mozarlândia,BR,1633488556,-14.7447,-50.5706,86.41,44,100,3.11
Atuona,PF,1633488557,-9.8,-139.0333,78.53,75,12,20.51
Clyde River,CA,1633488558,70.4692,-68.5914,34.03,100,90,5.75
Härnösand,SE,1633488560,62.6323,17.9379,48.99,99,100,8.32
Port Blair,IN,1633488561,11.6667,92.75,77.04,88,90,13.8
Luanda,AO,1633488563,-8.8368,13.2343,73.4,83,40,4.61
Saint-François,FR,1633488566,46.4154,3.9054,49.44,94,0,4.61
Oberwart,AT,1633488567,47.2897,16.206,58.57,91,99,1.66
Mayna,RU,1633488569,54.1135,47.6231,33.58,76,96,3.44
Altamont,US,1633488571,42.2068,-121.7372,57.78,44,1,10.36
Santa Isabel,BR,1633488572,-23.3156,-46.2214,65.66,96,100,3.65
Salalah,OM,1633488573,17.0151,54.0924,80.69,89,75,5.75
Havelock,US,1633488575,34.8791,-76.9013,78.78,92,71,5.5
Shahrud,IR,1633488576,36.4182,54.9763,54.59,78,1,9.8
North Bend,US,1633488577,43.4065,-124.2243,55.31,95,75,0.0
Makkah al Mukarramah,SA,1633488579,21.4267,39.8261,80.92,55,14,3.71
Talnakh,RU,1633488580,69.4865,88.3972,35.02,100,100,5.23
Akdepe,TM,1633488582,42.0551,59.3788,41.09,33,97,19.3
Abhā,SA,1633488585,18.2164,42.5053,62.42,45,0,4.61
Porto-Novo,BJ,1633488586,6.4965,2.6036,80.42,92,100,3.62
Sonoita,MX,1633488588,31.85,-112.8333,81.54,41,0,7.4
Doctor Arroyo,MX,1633488590,23.6667,-100.1833,63.01,75,99,3.22
Santa Catalina,PH,1633488591,9.3337,122.8637,82.9,74,100,2.48
Klyuchi,RU,1633488592,52.2667,79.1667,35.13,86,79,11.14
Leningradskiy,RU,1633488594,69.3833,178.4167,30.18,98,100,9.46
Barrow,US,1633488595,71.2906,-156.7887,26.62,86,90,9.22
Tarauacá,BR,1633488598,-8.1614,-70.7656,71.58,99,100,2.44
Isangel,VU,1633488599,-19.55,169.2667,82.51,78,75,5.75
Te Anau,NZ,1633488600,-45.4167,167.7167,61.14,66,84,3.49
Ubari,LY,1633488606,26.5921,12.7805,70.9,32,0,7.78
Vao,NC,1633488608,-22.6667,167.4833,73.65,82,0,9.66
Ahipara,NZ,1633488610,-35.1667,173.1667,66.16,75,100,7.52
Harlingen,US,1633488611,26.1906,-97.6961,81.9,52,1,4.61
Wilmington,US,1633488509,34.2257,-77.9447,75.85,88,1,0.0
Vaasa,FI,1633488614,63.096,21.6158,50.02,100,90,6.91
Coquimbo,CL,1633488599,-29.9533,-71.3436,53.33,87,0,2.3
São Sebastião,BR,1633488617,-23.76,-45.4097,66.29,94,100,5.68
Qui Nhon,VN,1633488618,13.7667,109.2333,76.17,94,100,9.1
Egvekinot,RU,1633488619,66.3167,-179.1667,30.06,92,100,11.01
Kununurra,AU,1633488621,-15.7667,128.7333,98.58,32,5,9.22
Beroroha,MG,1633488622,-21.6667,45.1667,70.09,72,4,3.4
Cidreira,BR,1633488623,-30.1811,-50.2056,60.03,67,0,14.07
Arman',RU,1633488625,59.7,150.1667,36.46,31,0,9.35
Bilibino,RU,1633488626,68.0546,166.4372,12.83,93,82,2.48
Uray,RU,1633488628,60.1247,64.7758,33.94,89,94,6.69
Tiksi,RU,1633488630,71.6872,128.8694,28.58,92,100,5.1
Tsumeb,NA,1633488631,-19.2333,17.7167,65.75,15,31,3.51
Nioro,GM,1633488632,13.35,-15.75,76.6,81,100,1.07
Osorno,CL,1633488633,-40.5667,-73.15,44.91,70,0,5.75
Coyhaique,CL,1633488635,-45.5752,-72.0662,31.15,86,1,3.89
Bambanglipuro,ID,1633488636,-7.95,110.2833,81.21,64,95,11.23
Fairbanks,US,1633488572,64.8378,-147.7164,36.61,86,75,3.44
Olafsvik,IS,1633488640,64.8945,-23.7142,40.46,81,96,13.13
São João dos Patos,BR,1633488641,-6.495,-43.7022,82.13,32,47,2.95
Dingli,MT,1633488642,35.8614,14.3822,69.96,83,20,3.44
Tessalit,ML,1633488645,20.1986,1.0114,84.27,16,0,10.38
Esperance,AU,1633488646,-33.8667,121.9,60.64,48,86,7.72
Krasnyy Chikoy,RU,1633488647,50.3643,108.7512,49.33,54,100,0.92
Orange Cove,US,1633488649,36.6244,-119.3137,80.26,56,40,4.61
‘Ewa Beach,US,1633488650,21.3156,-158.0072,84.15,58,40,20.0
Emba,KZ,1633488651,48.8264,58.1442,32.67,52,57,5.95
Dicabisagan,PH,1633488653,17.0818,122.4157,77.54,92,100,2.51
Krasna,UA,1633488654,48.5757,24.7003,43.03,75,3,5.93
Kuril'sk,RU,1633488655,45.2333,147.8833,49.57,53,11,7.63
Saint Anthony,US,1633488656,45.0205,-93.218,65.35,76,1,1.01
Whitehorse,CA,1633488506,60.7161,-135.0538,38.17,56,20,4.61
Fortuna,US,1633488660,40.5982,-124.1573,60.48,69,90,1.99
Makakilo City,US,1633488661,21.3469,-158.0858,82.72,59,90,6.91
Saldanha,ZA,1633488664,-33.0117,17.9442,55.45,67,27,8.9
Heihe,CN,1633488665,50.2441,127.4902,48.78,47,10,5.91
Nantucket,US,1633488559,41.2835,-70.0995,60.96,93,100,18.84
Minnedosa,CA,1633488667,50.2453,-99.8436,68.56,36,0,8.46
Phalaborwa,ZA,1633488670,-23.943,31.1411,65.48,87,19,3.38
Toora-Khem,RU,1633488671,52.4675,96.11,39.97,47,1,2.35
Glace Bay,CA,1633488672,46.1969,-59.957,51.69,92,1,9.22
Bathsheba,BB,1633488674,13.2167,-59.5167,83.01,74,20,19.57
Gazli,UZ,1633488676,40.1333,63.45,45.93,31,21,20.04
Acapulco de Juárez,MX,1633488396,16.8634,-99.8901,84.02,79,40,4.61
San Juan Bautista,PE,1633488535,-14.0108,-75.7358,57.83,65,100,3.18
Innisfail,AU,1633488680,-17.5333,146.0333,94.87,57,86,8.39
Gmina Strzelin,PL,1633488681,50.7816,17.0648,61.21,71,100,9.08
São Raimundo Nonato,BR,1633488682,-9.0153,-42.6994,78.62,31,5,3.91
Korčula,HR,1633488685,42.9622,17.1369,63.16,76,75,11.92
Oranjemund,NA,1633488686,-28.55,16.4333,55.18,75,82,1.88
Toumodi,CI,1633488687,6.5613,-5.0158,75.7,98,84,3.0
Berger,NO,1633488689,59.545,10.3714,51.55,25,100,11.5
Kavieng,PG,1633488690,-2.5744,150.7967,76.93,92,100,10.0
Kariba,ZW,1633488691,-16.5167,28.8,73.44,59,2,3.74
Balikpapan,ID,1633488693,-1.2675,116.8289,85.19,74,20,9.22
Riverton,US,1633488694,40.5219,-111.9391,64.63,62,40,1.01
Cabo San Lucas,MX,1633488602,22.8909,-109.9124,85.3,76,10,4.0
Arlit,NE,1633488696,18.7369,7.3853,83.52,18,0,7.27
São Joaquim,BR,1633488698,-28.2939,-49.9317,48.34,97,67,2.93
Kedrovyy,RU,1633488700,56.1667,91.8167,32.41,63,8,5.39
Plettenberg Bay,ZA,1633488701,-34.0527,23.3716,55.33,78,34,3.24
Wajid,SO,1633488702,3.8093,43.2471,71.64,84,62,12.88
Våler,NO,1633488704,60.6785,11.8331,48.88,93,100,7.83
Praia da Vitória,PT,1633488705,38.7333,-27.0667,72.75,94,75,14.2
Norman Wells,CA,1633488706,65.282,-126.8329,32.04,86,75,8.05
Mbanza-Ngungu,CD,1633488708,-5.25,14.8667,70.27,74,100,4.18
Tromsø,NO,1633488709,69.6496,18.957,47.05,87,75,11.5
Taoudenni,ML,1633488710,22.6783,-3.9836,89.65,11,0,9.1
Wattegama,LK,1633488712,6.7989,81.4808,77.92,64,81,11.21
Gao,ML,1633488713,16.6362,1.637,86.99,17,2,7.58
Omsukchan,RU,1633488715,62.5333,155.8,18.46,82,100,8.3
Cap Malheureux,MU,1633488717,-19.9842,57.6142,71.47,81,51,1.99
Oriximiná,BR,1633488718,-1.7656,-55.8661,82.29,54,100,4.05
Salisbury,GB,1633488546,51.0693,-1.7957,52.95,84,20,14.97
Trairi,BR,1633488576,-3.2778,-39.2689,78.89,81,100,13.73
Nanortalik,GL,1633488721,60.1432,-45.2371,37.42,67,1,4.47
Medzilaborce,SK,1633488723,49.2719,21.9007,52.83,52,54,10.18
Krasnotorka,UA,1633488724,48.682,37.5327,42.26,54,5,12.5
Qaqortoq,GL,1633488725,60.7167,-46.0333,34.86,64,10,6.85
Vuktyl,RU,1633488727,63.8567,57.3094,32.83,97,27,6.62
Houma,US,1633488728,29.5958,-90.7195,75.2,90,0,5.12
Walvis Bay,NA,1633488730,-22.9575,14.5053,53.1,93,7,1.14
Asău,RO,1633488732,46.4333,26.4,39.76,81,6,0.31
Kenai,US,1633488733,60.5544,-151.2583,46.02,76,90,0.0
Kansk,RU,1633488734,56.2017,95.7175,38.89,56,65,5.82
Goderich,CA,1633488736,43.7501,-81.7165,62.04,88,2,4.61
Mulegé,MX,1633488737,26.8833,-111.9833,83.07,56,96,1.3
Bay Roberts,CA,1633488738,47.5999,-53.2648,45.52,83,66,7.74
San Andrés,CO,1633488739,12.5847,-81.7006,84.22,84,40,9.22
Abu Samrah,SY,1633488741,35.3029,37.1841,60.82,66,0,4.63
Salekhard,RU,1633488742,66.53,66.6019,38.8,84,2,15.37
Pastavy,BY,1633488743,55.1168,26.8326,46.06,70,95,16.02
Zhigansk,RU,1633488746,66.7697,123.3711,32.68,70,100,16.62
Aquiraz,BR,1633488570,-3.9014,-38.3911,80.69,82,98,12.15
La Reforma,MX,1633488748,25.0833,-108.05,87.15,70,49,7.0
Rawson,AR,1633488655,-43.3002,-65.1023,43.88,63,5,17.69
Jinchang,CN,1633488750,38.4953,102.1739,54.0,54,2,8.77
Yulara,AU,1633488752,-25.2406,130.9889,94.84,14,40,20.71
Kahului,US,1633488753,20.8947,-156.47,84.22,72,20,24.16
Mamakan,RU,1633488755,57.8161,114.0028,39.07,64,100,1.16
Sørland,NO,1633488756,67.667,12.6934,50.05,75,99,8.7
Khovd,MN,1633488757,48.0056,91.6419,43.68,23,100,0.85
São Félix do Xingu,BR,1633488759,-6.6447,-51.995,78.19,64,76,0.29
Oneonta,US,1633488762,42.4529,-75.0638,64.47,91,100,1.39
Pacifica,US,1633488613,37.6138,-122.4869,65.82,84,75,3.0
Svobodnyy,RU,1633488765,51.4,128.1333,45.81,55,84,11.61
Aksarka,RU,1633488766,66.5606,67.7975,39.67,82,3,15.03
Nacozari,MX,1633488767,25.3366,-108.2574,87.12,53,45,6.96
Jiuquan,CN,1633488768,39.7432,98.5174,54.41,43,54,7.4
Kautokeino,NO,1633488770,69.0125,23.0412,42.03,86,10,18.88
Dikson,RU,1633488771,73.5069,80.5464,35.44,99,100,14.79
Watertown,US,1633488600,42.3709,-71.1828,58.75,94,75,1.01
Inhambane,MZ,1633488773,-23.865,35.3833,73.38,94,40,1.99
Ayan,RU,1633488775,56.45,138.1667,43.74,43,100,10.8
Orán,AR,1633488777,-23.1322,-64.326,64.35,61,9,1.95
Itoman,JP,1633488778,26.1247,127.6694,87.82,70,75,19.57
Flinders,AU,1633488780,-34.5833,150.8552,75.79,47,1,5.01
Xining,CN,1633488781,36.6167,101.7667,52.43,71,95,2.51
Rocha,UY,1633488783,-34.4833,-54.3333,49.69,82,0,7.07
Mali,GN,1633488784,12.079,-12.2982,59.92,87,78,2.82
Hokitika,NZ,1633488785,-42.7167,170.9667,57.81,90,100,4.34
São Filipe,CV,1633488788,14.8961,-24.4956,79.34,74,7,10.11
Bairiki Village,KI,1633488789,1.3292,172.9752,87.8,62,75,5.75
The Valley,AI,1633488790,18.217,-63.0578,83.1,73,27,22.28
Ca Mau,VN,1633488792,9.1769,105.15,77.32,92,100,9.04
Kiryat Gat,IL,1633488793,31.61,34.7642,70.48,75,0,3.15
Okha,RU,1633488794,53.5739,142.9478,46.18,57,100,17.2
Mittagong,AU,1633488796,-34.45,150.45,68.61,27,1,10.67
Lakes Entrance,AU,1633488797,-37.8811,147.981,70.57,42,10,5.86
San Cristobal,VE,1633488587,7.7669,-72.225,71.78,98,91,2.89
Zaraza,VE,1633488799,9.3503,-65.3245,74.68,91,59,4.07
Obo,CF,1633488802,5.3998,26.4869,65.89,97,70,2.95
Dubbo,AU,1633488544,-32.25,148.6167,68.13,34,0,4.61
Mosquera,CO,1633488628,4.7059,-74.2302,55.49,94,75,3.44
Baghdad,IQ,1633488536,33.3406,44.4009,69.71,49,0,2.3
Kelo,TD,1633488809,9.3086,15.8066,72.75,90,98,4.97
Lorengau,PG,1633488810,-2.0226,147.2712,76.53,92,100,5.1
Yashkul',RU,1633488811,46.1711,45.3435,42.51,43,16,18.99
Vryburg,ZA,1633488814,-26.9566,24.7284,61.39,53,0,5.12
Vila,PT,1633488815,42.0304,-8.1588,49.33,94,26,4.25
Skjervøy,NO,1633488783,70.0311,20.9714,49.1,80,99,26.96
Takoradze,GH,1633488820,4.8845,-1.7554,76.75,89,82,6.4
Kawalu,ID,1633488821,-7.3817,108.2082,73.67,88,99,4.29
Abaeté,BR,1633488729,-19.16,-45.4458,77.0,60,24,7.63
Moose Factory,CA,1633488824,51.2585,-80.6094,57.18,77,1,5.75
Vostok,RU,1633488825,46.4856,135.8833,46.54,45,2,10.71
Río Gallegos,AR,1633488698,-51.6226,-69.2181,35.65,60,0,11.5
Mayo,US,1633488827,38.8876,-76.5119,72.12,91,90,8.01
Tarpon Springs,US,1633488829,28.1461,-82.7568,80.94,77,40,4.0
Lata,PT,1633488831,40.1629,-8.3327,60.82,96,7,2.98
Morón,AR,1633488832,-34.6534,-58.6198,65.95,62,2,1.01
Bubaque,GW,1633488835,11.2833,-15.8333,82.38,64,54,2.55
Āsosa,ET,1633488836,10.0667,34.5333,60.22,96,99,2.86
Urucará,BR,1633488837,-2.5364,-57.76,77.47,62,100,2.3
Krasnosel'kup,RU,1633488839,65.7,82.4667,37.87,98,100,14.27
Katsuura,JP,1633488840,35.1333,140.3,78.91,77,44,19.04
Grand Gaube,MU,1633488841,-20.0064,57.6608,71.38,81,63,1.99
Saint-Michel-des-Saints,CA,1633488843,46.6834,-73.9159,50.59,82,0,1.48
Bagdarin,RU,1633488844,54.4333,113.6,37.24,54,100,2.46
Taltal,CL,1633488846,-25.4,-70.4833,58.26,78,99,0.63
Malbork,PL,1633488847,54.0359,19.0266,59.88,51,100,17.31
Pangnirtung,CA,1633488848,66.1451,-65.7125,39.2,60,40,9.22
Luangwa,ZM,1633488851,-15.6167,30.4167,77.88,60,6,9.89
Waipawa,NZ,1633488852,-41.4122,175.5153,61.43,87,100,6.29
Neiafu,TO,1633488853,-18.65,-173.9833,81.28,78,75,6.91
Grosse Pointe Park,US,1633488855,42.3759,-82.9374,65.08,90,75,5.01
Aljezur,PT,1633488856,37.3191,-8.8033,63.75,90,99,7.4
Padre Bernardo,BR,1633488857,-15.35,-48.5,78.84,27,12,0.67
Sidi Ben Nour,TN,1633488858,35.5333,10.9167,75.11,82,50,11.1
Maţāy,EG,1633488860,28.419,30.7792,66.51,73,0,13.2
Thinadhoo,MV,1633488861,0.5333,72.9333,84.45,71,100,16.04
Edson,CA,1633488862,53.5835,-116.4356,41.14,65,20,3.44
Montepuez,MZ,1633488866,-13.1256,38.9997,66.34,87,9,3.42
Abbeville,FR,1633488867,50.1,1.8333,57.16,85,8,18.79
Voh,NC,1633488869,-20.9667,164.7,84.27,48,0,8.14
Kamenka,RU,1633488870,51.3223,42.7678,34.3,61,6,8.03
Tibú,CO,1633488871,8.639,-72.7358,75.25,99,100,3.13
Mount Gambier,AU,1633488872,-37.8333,140.7667,58.91,72,40,14.97
Altoona,US,1633488662,40.5187,-78.3947,66.67,94,15,2.51
Sisimiut,GL,1633488876,66.9395,-53.6735,36.46,68,100,7.7
Tual,ID,1633488877,-5.6667,132.75,80.51,79,97,9.95
Jefferson City,US,1633488879,38.5767,-92.1735,67.44,93,84,6.15
Onega,RU,1633488881,63.9061,38.1404,46.18,77,100,12.84
Misratah,LY,1633488882,32.3754,15.0925,74.37,74,0,12.33
Poronaysk,RU,1633488885,49.2167,143.1167,47.88,53,16,3.0
Angostura,MX,1633488886,25.3667,-108.1833,87.01,57,44,4.29
Mehamn,NO,1633488887,71.0357,27.8492,49.95,71,75,17.27
Evensk,RU,1633488888,61.95,159.2333,32.76,46,100,11.59
Kolondiéba,ML,1633488890,11.0882,-6.8926,74.46,78,62,3.15
Biltine,TD,1633488891,14.5333,20.9167,77.47,20,65,8.03
Saint-Ambroise,CA,1633488892,48.5501,-71.3324,46.0,87,0,3.44
Nanzhang,CN,1633488894,31.7765,111.8386,57.9,87,100,8.46
Kyzyl-Suu,KG,1633488897,42.3414,78.0056,43.41,64,82,8.34
Kumul,CN,1633488898,42.8,93.45,64.83,18,32,6.35
Yumen,CN,1633488900,40.2833,97.2,54.91,41,35,14.54
San Jose,US,1633488901,37.3394,-121.895,66.56,73,40,1.01
Laas,IT,1633488902,46.6166,10.7002,51.62,98,100,0.94
St. George's,GD,1633488904,12.0564,-61.7485,80.28,78,20,20.71
Três Pontas,BR,1633488906,-21.3667,-45.5125,64.99,93,7,5.35
Rio Verde de Mato Grosso,BR,1633488908,-18.9181,-54.8442,77.41,75,68,3.83
Sahuaripa,MX,1633488910,29.05,-109.2333,77.43,51,11,0.6
Iaciara,BR,1633488911,-14.0958,-46.6317,80.69,28,99,2.06
Perdões,BR,1633488912,-21.0908,-45.0914,65.79,91,57,10.31
Constitución,CL,1633488915,-35.3333,-72.4167,51.89,72,3,8.7
Kolosovka,RU,1633488916,56.4678,73.611,30.0,77,46,5.41
Murray Bridge,AU,1633488917,-35.1167,139.2667,79.43,19,100,14.18
San Giuseppe Jato,IT,1633488919,37.9734,13.1881,68.22,86,22,5.5
Masuguru,TZ,1633488920,-11.3667,38.4167,69.42,84,14,2.33
Amuntai,ID,1633488921,-2.4177,115.2494,91.06,55,94,1.21
Middelburg,ZA,1633488923,-25.7751,29.4648,57.92,66,10,4.05
Fort Nelson,CA,1633488924,58.8053,-122.7002,33.39,75,75,3.44
San Fernando del Valle de Catamarca,AR,1633488722,-28.4696,-65.7852,62.58,43,4,12.82
Mbandaka,CD,1633488927,0.0487,18.2603,70.12,95,100,1.36
Banjar,ID,1633488929,-8.19,114.9675,80.46,65,88,7.54
Zaoyang,CN,1633488930,32.1272,112.7542,58.53,82,100,10.4
Urengoy,RU,1633488931,65.9667,78.3667,41.76,86,93,15.46
Abay,KZ,1633488932,49.6311,72.8539,30.58,86,98,14.41
Islamkot,PK,1633488934,24.6997,70.177,82.31,66,14,6.55
São José da Coroa Grande,BR,1633488935,-8.8978,-35.1478,74.8,84,43,7.11
Ludvika,SE,1633488936,60.1496,15.1878,52.03,97,100,9.37
Caravelas,BR,1633488938,-17.7125,-39.2481,72.36,91,6,4.9
Shemgang,BT,1633488939,27.2169,90.6579,69.01,61,1,4.09
Northam,GB,1633488940,51.0333,-4.2167,56.39,77,57,16.75
Kavaratti,IN,1633488942,10.5669,72.642,81.28,80,100,12.8
Byron Bay,AU,1633488733,-28.65,153.6167,78.06,38,0,10.54
Meadow Lake,US,1633488944,34.8014,-106.5436,70.12,29,20,12.86
Moldoviţa,RO,1633488945,47.6833,25.5333,39.63,76,6,5.12
Avera,US,1633488947,33.194,-82.5271,71.65,91,100,7.9
Touros,BR,1633488948,-5.1989,-35.4608,79.7,81,9,13.65
Xiaoweizhai,CN,1633488949,26.1903,107.5125,81.81,56,0,4.29
Poum,NC,1633488951,-20.2333,164.0167,76.01,74,0,15.43
Mossamedes,AO,1633488952,-15.1961,12.1522,60.33,84,59,4.59
Black Diamond,US,1633488954,47.3087,-122.0032,52.03,92,99,1.01
Quelimane,MZ,1633488907,-17.8786,36.8883,73.35,94,0,1.99
Riachão,BR,1633488957,-7.3619,-46.6172,80.87,48,3,3.76
Sola,VU,1633488958,-13.8833,167.55,80.73,76,33,8.39
Finschhafen,PG,1633488959,-6.6024,147.8681,81.0,78,100,5.32
Presidente Médici,BR,1633488904,-11.1753,-61.9014,74.12,95,96,3.49
Blairmore,CA,1633488962,49.6,-114.4353,64.09,49,15,1.14
Marawi,PH,1633488963,7.9986,124.2928,77.65,52,91,4.07
Kapoeta,SS,1633488965,4.7717,33.5903,71.8,85,45,5.12
Tanout,NE,1633488966,14.9709,8.8879,83.79,21,77,9.19
Mount Isa,AU,1633488967,-20.7333,139.5,94.77,10,5,12.66
Belize,BZ,1633488970,17.25,-88.75,81.25,97,44,2.15
Jacareacanga,BR,1633488971,-6.2222,-57.7528,76.75,64,3,2.42
Eureka,US,1633488833,40.8021,-124.1637,56.68,93,100,3.0
Kanniyākumāri,IN,1633488974,8.0833,77.5667,80.04,83,100,10.56
Araouane,ML,1633488975,18.9048,-3.5265,89.37,29,92,2.51
Sawākin,SD,1633488976,19.1059,37.3321,82.15,61,49,7.99
Jos,NG,1633488978,9.9167,8.9,66.29,77,70,3.09
Bereket,TM,1633488979,39.2446,55.5154,56.19,29,53,20.22
Ixtapa,MX,1633488980,20.7,-105.2,77.34,93,88,1.68
Biak,ID,1633488982,-0.9131,122.8766,83.53,65,87,3.6
Aswān,EG,1633488983,24.0934,32.907,70.9,46,0,10.36
Erzin,TR,1633488985,36.9559,36.2,63.12,36,0,4.38
Westminster,US,1633488710,39.8367,-105.0372,70.57,31,1,7.0
Wanxian,CN,1633488988,30.8039,108.3897,89.15,52,3,6.22
Malindi,KE,1633488990,-3.2175,40.1191,77.16,88,40,0.0
Ballina,AU,1633488993,-28.8667,153.5667,75.78,46,0,13.8
Bentiu,SS,1633488994,9.2333,29.8333,71.91,85,97,3.85
Enshi,CN,1633488995,30.3,109.4833,75.78,82,88,0.56
Lyubech,UA,1633488997,51.7026,30.6569,40.05,82,6,8.66
Dzhebariki-Khaya,RU,1633488998,62.2167,135.8,32.54,79,100,6.17
Estelle,US,1633489002,29.8458,-90.1067,75.99,78,0,4.29
Natal,BR,1633488858,-5.795,-35.2094,79.45,83,0,11.5
Ketchikan,US,1633488948,55.3422,-131.6461,49.98,70,0,7.63
Batticaloa,LK,1633489008,7.7102,81.6924,80.87,77,74,1.48
Hopewell,US,1633489009,37.3043,-77.2872,73.62,93,91,3.51
Nome,US,1633488990,64.5011,-165.4064,44.67,87,90,12.66
Ust-Maya,RU,1633489012,60.4167,134.5333,35.53,62,100,7.54
Villablino,ES,1633489015,42.9393,-6.3194,52.18,99,100,1.99
Gimli,CA,1633489017,50.6336,-96.9907,71.44,56,15,17.27
Sydney,AU,1633488879,-33.8679,151.2073,78.62,35,0,5.99
Tumut,AU,1633489019,-35.3,148.2167,63.59,57,1,9.26
Kutum,SD,1633489020,14.2,24.6667,70.32,25,3,7.02
Mil'kovo,RU,1633489022,54.7167,158.6167,43.25,34,97,9.84
Samarai,PG,1633489023,-10.6167,150.6667,80.83,82,71,14.56
Kondinskoye,RU,1633489024,59.6481,67.41,35.15,92,100,6.04
Celestún,MX,1633489026,20.8667,-90.4,81.27,76,29,7.92
Helensburgh,GB,1633489027,56.0061,-4.7265,44.42,93,80,3.85
Tucumcari,US,1633489028,35.1717,-103.725,66.25,46,0,9.19
Paamiut,GL,1633489032,61.994,-49.6678,36.82,69,100,12.59
Tezu,IN,1633489033,27.9167,96.1667,83.35,58,50,2.86
Carutapera,BR,1633488797,-1.195,-46.02,78.06,76,71,6.73
Jacqueville,CI,1633489036,5.2052,-4.4146,78.71,86,12,2.51
Chernyshevskiy,RU,1633489037,63.0128,112.4714,31.91,61,48,12.33
Changli,CN,1633489038,39.7042,119.1506,53.29,75,100,4.41
Cosalá,MX,1633489039,24.4125,-106.6908,75.09,83,0,2.06
Belaya Gora,RU,1633489041,68.5333,146.4167,30.27,47,96,10.69
Meulaboh,ID,1633489042,4.1363,96.1285,82.56,67,99,1.16
Kulmbach,DE,1633489043,50.1,11.45,52.65,90,98,1.01
Dunedin,NZ,1633489046,-45.8742,170.5036,57.79,97,100,17.0
Wau,SS,1633489047,7.7029,27.9953,71.6,86,89,3.49
Tornio,FI,1633488865,65.8481,24.1466,50.02,95,100,15.57
Weiser,US,1633489049,44.251,-116.9693,74.03,18,96,1.81
Manali,IN,1633489051,13.1667,80.2667,82.49,79,86,5.19
Gold Coast,AU,1633489053,-28.0,153.4333,85.15,45,0,16.11
Bétaré Oya,CM,1633489054,5.6,14.0833,67.73,95,97,3.2
Humberto de Campos,BR,1633489056,-2.5983,-43.4611,77.31,86,64,5.75
Sambava,MG,1633489057,-14.2667,50.1667,68.45,86,44,8.03
Ginir,ET,1633489058,7.1333,40.7,56.84,81,19,5.08
Emerald,AU,1633489060,-23.5333,148.1667,86.34,16,0,10.36
Mahibadhoo,MV,1633489062,3.7833,72.9667,84.02,72,63,15.59
Praia,CV,1633489063,14.9215,-23.5087,79.34,83,40,11.5
Kuching,MY,1633489065,1.55,110.3333,86.22,74,20,3.44
Tsabong,BW,1633489067,-26.0217,22.401,60.96,61,0,11.95
Kloulklubed,PW,1633489068,7.0419,134.2556,83.21,77,100,17.43
Muisne,EC,1633489070,0.6,-80.0333,74.43,84,100,8.25
Warrington,GB,1633489071,53.3925,-2.5802,54.27,84,52,1.99
