city,country,datetime,lat,long,maxtemp,humidity,cloudiness,windspeed
Kerema,PG,1633808781,-7.9631,145.7785,76.82,92,93,6.08
Mar del Plata,AR,1633808782,-38.0023,-57.5575,57.22,66,0,17.0
Kavaratti,IN,1633808608,10.5669,72.642,82.24,80,98,10.51
Sitka,US,1633808784,57.0531,-135.33,49.89,71,90,17.27
Ushuaia,AR,1633808786,-54.8,-68.3,51.46,62,40,9.22
Chokurdakh,RU,1633808787,70.6333,147.9167,4.32,99,98,5.53
Qaanaaq,GL,1633808788,77.484,-69.3632,28.38,82,100,14.92
Barrow,US,1633808499,71.2906,-156.7887,30.22,80,90,8.05
Inhambane,MZ,1633808791,-23.865,35.3833,72.61,76,0,14.03
Atuona,PF,1633808792,-9.8,-139.0333,77.79,71,13,18.05
Nuuk,GL,1633808793,64.1835,-51.7216,34.41,80,75,10.36
Mossamedes,AO,1633808549,-15.1961,12.1522,65.61,77,4,1.77
Saldanha,ZA,1633808796,-33.0117,17.9442,58.82,79,0,15.99
Byron Bay,AU,1633808797,-28.65,153.6167,69.75,89,10,13.33
Tuktoyaktuk,CA,1633808800,69.4541,-133.0374,30.2,93,90,5.75
Alofi,NU,1633808801,-19.0595,-169.9187,76.89,88,95,5.75
George Town,MY,1633808719,5.4112,100.3354,80.89,89,20,1.14
Mataura,NZ,1633808805,-46.1927,168.8643,46.47,69,2,2.93
Hong Kong,HK,1633808666,22.2855,114.1577,80.58,95,100,5.99
Torbay,CA,1633808808,47.6666,-52.7314,44.58,88,90,23.02
Nikolskoye,RU,1633808809,59.7035,30.7861,52.88,84,100,5.7
Haines Junction,CA,1633808811,60.7522,-137.5108,40.95,60,100,2.3
Manta,EC,1633808812,-0.95,-80.7333,76.78,73,20,10.36
Malishka,AM,1633808814,39.7376,45.39,48.04,56,0,1.59
Busselton,AU,1633808816,-33.65,115.3333,42.08,79,90,7.63
Hermanus,ZA,1633808817,-34.4187,19.2345,60.91,78,0,7.38
Chui,UY,1633808818,-33.6971,-53.4616,61.74,66,25,11.03
San Cristobal,VE,1633808820,7.7669,-72.225,82.31,55,56,3.53
Rikitea,PF,1633808821,-23.1203,-134.9692,74.05,82,100,18.12
Vung Tau,VN,1633808822,10.346,107.0843,79.11,88,100,13.82
Narsaq,GL,1633808824,60.9167,-46.05,41.22,62,3,2.46
Avarua,CK,1633808825,-21.2078,-159.775,77.05,65,27,5.75
Galesong,ID,1633808826,-5.3166,119.3661,73.42,72,92,11.32
Yerbogachën,RU,1633808828,61.2767,108.0108,36.81,97,100,15.59
Margate,GB,1633808826,51.3813,1.3862,56.3,90,6,5.61
Bluff,NZ,1633808830,-46.6,168.3333,46.8,84,71,9.57
Port Alfred,ZA,1633808831,-33.5906,26.891,61.59,70,3,19.17
Pitimbu,BR,1633808833,-7.4706,-34.8086,82.99,75,100,13.65
Cayenne,GF,1633808541,4.9333,-52.3333,87.84,76,0,4.0
Iqaluit,CA,1633808835,63.7506,-68.5145,35.33,93,90,4.0
Carnarvon,AU,1633808837,-24.8667,113.6333,62.67,67,0,17.27
Atmakūr,IN,1633808839,15.8833,78.5833,75.67,88,94,1.95
Ketchikan,US,1633808840,55.3422,-131.6461,48.67,81,75,5.75
Kavieng,PG,1633808841,-2.5744,150.7967,80.35,80,85,7.47
Newport,GB,1633808843,51.5877,-2.9984,61.63,88,100,3.27
Chietla,MX,1633808845,18.5167,-98.5833,85.64,44,92,0.49
Polokwane,ZA,1633808704,-23.9045,29.4688,74.25,41,42,2.3
Bambous Virieux,MU,1633808556,-20.3428,57.7575,73.65,78,75,18.41
Hilo,US,1633808590,19.7297,-155.09,77.29,86,90,5.75
Cape Town,ZA,1633808850,-33.9258,18.4232,62.28,72,0,10.36
Castro,BR,1633808851,-24.7911,-50.0119,56.5,99,100,6.22
Severo-Kuril'sk,RU,1633808852,50.6789,156.125,43.59,78,22,13.02
Cândido Mendes,BR,1633808853,-1.4467,-45.7167,80.02,81,73,7.11
Mackay,AU,1633808848,-21.15,149.2,71.04,88,75,1.14
Lüderitz,NA,1633808856,-26.6481,15.1594,63.9,58,53,18.34
Coquimbo,CL,1633808597,-29.9533,-71.3436,64.13,55,20,13.8
Alta Floresta,BR,1633808721,-9.8756,-56.0861,93.02,55,20,5.75
Sehwan,PK,1633808859,26.4279,67.863,82.22,39,0,8.23
Port Hardy,CA,1633808861,50.6996,-127.4199,50.18,93,90,16.11
Longyearbyen,SJ,1633808862,78.2186,15.6401,19.24,79,20,6.91
Puerto Ayora,EC,1633808863,-0.7393,-90.3518,78.76,77,91,10.49
Tamandaré,BR,1633808865,-8.7597,-35.1047,77.47,72,98,7.94
Albany,US,1633808831,42.6001,-73.9662,66.45,68,100,1.01
Grindavik,IS,1633808867,63.8424,-22.4338,45.07,93,75,12.66
Kupang,ID,1633808869,-10.1667,123.5833,76.1,82,49,4.23
Butaritari,KI,1633808871,3.0707,172.7902,81.55,68,100,12.24
Kapaa,US,1633808872,22.0752,-159.319,80.58,70,75,8.01
Punta Arenas,CL,1633808842,-53.15,-70.9167,57.31,51,40,26.46
Kruisfontein,ZA,1633808874,-34.0033,24.7314,56.88,79,1,11.52
Hīt,IQ,1633808876,33.6416,42.8251,78.71,12,0,6.87
Jamestown,US,1633808877,42.097,-79.2353,67.51,89,90,5.99
Brandon,US,1633808878,27.9378,-82.2859,89.94,67,40,1.01
Eureka,US,1633808880,40.8021,-124.1637,67.19,66,7,5.01
Kahului,US,1633808405,20.8947,-156.47,78.84,87,75,24.16
Amherst,US,1633808882,41.3978,-82.2224,79.72,64,75,3.0
São Filipe,CV,1633808883,14.8961,-24.4956,80.78,73,3,11.07
Raudeberg,NO,1633808885,61.9875,5.1352,57.2,91,100,10.0
Lebedyn,UA,1633808886,50.5852,34.4849,43.72,39,100,7.72
Hobart,AU,1633808783,-42.8794,147.3294,46.26,74,20,1.01
Constitución,CL,1633808888,-35.3333,-72.4167,58.19,74,28,7.36
Kharp,RU,1633808890,66.8014,65.8081,26.29,85,14,8.95
Samarai,PG,1633808892,-10.6167,150.6667,79.09,82,89,16.53
Waingapu,ID,1633808893,-9.6567,120.2641,76.3,78,68,2.42
Puerto Madryn,AR,1633808895,-42.7692,-65.0385,71.94,30,0,12.95
Gusinoye Ozero,RU,1633808896,51.1144,106.2614,32.88,65,18,2.8
Thinadhoo,MV,1633808897,0.5333,72.9333,83.17,72,100,11.54
Kailua,US,1633808899,21.4022,-157.7394,82.38,68,75,18.41
Hazorasp,UZ,1633808901,41.3194,61.0742,46.72,54,1,8.61
Walvis Bay,NA,1633808903,-22.9575,14.5053,59.95,77,0,6.91
Cherskiy,RU,1633808879,68.75,161.3,9.12,96,99,5.01
Ust-Nera,RU,1633808908,64.5667,143.2,21.4,93,100,6.85
Iskateley,RU,1633808909,67.6803,53.1512,31.57,74,90,7.9
Havøysund,NO,1633808911,70.9963,24.6622,43.68,91,100,4.97
East London,ZA,1633808671,-33.0153,27.9116,62.62,66,0,17.67
College,US,1633808913,64.8569,-147.8028,37.35,91,75,0.0
Yeppoon,AU,1633808846,-23.1333,150.7333,64.18,81,2,7.78
Laguna,US,1633808915,38.421,-121.4238,72.23,45,1,3.0
Burnie,AU,1633808917,-41.0667,145.9167,43.95,71,21,10.71
Saskylakh,RU,1633808918,71.9167,114.0833,10.27,98,100,3.24
Tasiilaq,GL,1633808919,65.6145,-37.6368,33.96,86,8,4.92
Lincoln,US,1633808817,40.8,-96.667,76.91,50,1,13.8
Zhigansk,RU,1633808814,66.7697,123.3711,33.42,99,100,18.54
Najrān,SA,1633808815,17.4924,44.1277,81.25,35,7,5.86
Klaksvík,FO,1633808925,62.2266,-6.589,50.92,85,45,20.76
Ballina,AU,1633808874,-28.8667,153.5667,60.78,94,9,5.75
Aklavik,CA,1633808750,68.2191,-135.0107,32.0,86,75,5.75
Tuatapere,NZ,1633808929,-46.1333,167.6833,46.81,73,59,5.14
Luwuk,ID,1633808910,-0.9516,122.7875,75.99,80,77,4.12
Lata,PT,1633808931,40.1629,-8.3327,63.07,81,24,0.96
Hithadhoo,MV,1633808932,-0.6,73.0833,82.78,69,100,9.01
Saint Paul Harbor,US,1633808919,57.79,-152.4072,49.51,46,75,16.11
Hillsdale,US,1633808935,41.0026,-74.0404,69.78,81,90,5.01
Los Llanos de Aridane,ES,1633808825,28.6585,-17.9182,69.55,86,20,16.11
Amazar,RU,1633808937,53.858,120.875,30.07,89,72,5.21
Tiksi,RU,1633808938,71.6872,128.8694,16.12,88,69,3.85
Sioux Lookout,CA,1633808767,50.1001,-91.917,64.78,88,75,4.61
Collie,AU,1633808941,-33.3667,116.15,39.97,96,100,3.85
Vao,NC,1633808943,-22.6667,167.4833,69.6,60,63,15.43
Dergachi,RU,1633808945,51.2328,48.7659,45.46,49,0,6.82
Lugovoy,KZ,1633808946,42.9472,72.7644,48.54,92,100,1.68
Assiut,EG,1633808896,27.181,31.1837,78.98,35,0,7.52
Pevek,RU,1633808948,69.7008,170.3133,24.06,95,100,2.98
Kānkon,IN,1633808951,15.0167,74.0167,78.6,85,100,3.94
Sambava,MG,1633808953,-14.2667,50.1667,72.55,72,26,13.53
Batagay,RU,1633808954,67.6333,134.6333,28.67,74,100,6.33
Beloha,MG,1633808956,-25.1667,45.05,69.21,70,0,3.42
Kjøpsvik,NO,1633808957,68.097,16.3742,49.17,93,100,6.53
LaBelle,US,1633808959,26.7617,-81.4384,89.64,60,64,7.63
Carballo,ES,1633808961,43.213,-8.691,62.76,83,96,8.86
Suez,EG,1633808963,29.9737,32.5263,70.43,82,0,11.25
Norman Wells,CA,1633808964,65.282,-126.8329,30.24,93,75,4.61
Namatanai,PG,1633808966,-3.6667,152.4333,78.33,85,80,4.65
Severobaykal'sk,RU,1633808967,55.65,109.3167,35.58,84,100,6.02
Ipixuna,BR,1633808968,-1.7625,-48.8043,76.95,79,88,4.54
Belaya Gora,RU,1633808970,68.5333,146.4167,11.5,85,90,4.45
Troitsko-Pechorsk,RU,1633808971,62.7084,56.1964,28.85,82,22,4.29
San Juan,AR,1633808972,-31.5375,-68.5364,70.84,38,68,13.06
Alanya,TR,1633808974,36.5438,31.9998,68.13,40,0,4.27
Kirkenær,NO,1633808975,60.4564,12.0582,54.99,88,100,8.23
Guerrero Negro,MX,1633808859,27.9769,-114.0611,76.57,52,5,22.7
Salinas,US,1633808977,36.6777,-121.6555,75.0,42,1,0.0
Ambon City,ID,1633808979,-3.6954,128.1814,79.66,84,73,5.97
Hamilton,US,1633808936,39.1834,-84.5333,82.76,60,20,1.01
Suicheng,CN,1633808981,33.8963,117.9331,67.51,94,96,9.1
Fort Saint James,CA,1633808982,54.4333,-124.25,45.3,76,100,8.12
Clyde River,CA,1633808984,70.4692,-68.5914,34.59,76,100,12.48
Khatanga,RU,1633808848,71.9667,102.5,16.14,97,100,1.52
Diamantino,BR,1633808986,-14.4086,-56.4461,95.86,33,85,8.28
Ayan,RU,1633808987,56.45,138.1667,40.59,56,72,4.5
Esperance,AU,1633808989,-33.8667,121.9,49.84,57,100,6.04
Omaruru,NA,1633808990,-21.4333,15.9333,71.89,6,1,4.63
Port Lincoln,AU,1633808992,-34.7333,135.8667,52.11,56,100,10.96
Ponta do Sol,PT,1633808868,32.6667,-17.1,73.0,69,27,4.97
Fortuna,US,1633808995,40.5982,-124.1573,68.18,60,7,1.99
Kaitangata,NZ,1633808997,-46.2817,169.8464,46.76,79,2,3.27
Caravelas,BR,1633808999,-17.7125,-39.2481,73.26,76,100,8.81
Bandarbeyla,SO,1633809000,9.4942,50.8122,78.44,83,85,20.62
Voskresenskoye,RU,1633809004,56.8381,45.4317,41.54,73,93,4.79
Bundaberg,AU,1633809006,-24.85,152.35,68.29,87,13,1.01
Orán,AR,1633809007,-23.1322,-64.326,65.37,87,100,3.51
Bitung,ID,1633809009,1.4451,125.1824,77.85,83,100,7.94
Houma,US,1633808844,29.5958,-90.7195,88.0,58,16,2.86
Colares,PT,1633809012,38.7992,-9.4469,65.34,77,20,3.0
‘Āhuimanu,US,1633809013,21.4447,-157.8378,80.31,66,75,18.41
Rafai,CF,1633809015,4.95,23.9167,70.81,96,100,3.0
Korla,CN,1633809016,41.7597,86.1469,45.63,44,6,3.67
Saint-Philippe,RE,1633809018,-21.3585,55.7679,72.99,85,43,15.05
Nehe,CN,1633809019,48.4833,124.8333,47.25,65,53,19.8
Ziro,IN,1633809020,27.6333,93.8333,54.09,96,16,1.97
Pierre,US,1633809022,44.3683,-100.351,61.72,93,90,6.91
Deputatsky,RU,1633808935,69.3,139.9,16.83,87,100,5.08
Lubango,AO,1633809024,-14.9172,13.4925,70.47,36,58,3.47
Bethel,US,1633809026,41.3712,-73.414,66.36,81,90,1.99
Thompson,CA,1633808745,55.7435,-97.8558,50.16,53,20,8.05
Chabahar,IR,1633809028,25.2919,60.643,82.89,69,0,5.46
Plérin,FR,1633809031,48.5425,-2.7798,58.44,89,75,1.99
Bathsheba,BB,1633809033,13.2167,-59.5167,84.81,79,40,16.11
Saint George,US,1633809034,37.1041,-113.5841,73.63,46,1,1.99
Jutaí,BR,1633809035,-5.1833,-68.9,94.44,40,72,0.4
Okhotsk,RU,1633809037,59.3833,143.3,24.57,79,7,9.95
Cervo,ES,1633809038,43.6702,-7.4101,63.97,87,100,16.49
Maragogi,BR,1633809039,-9.0122,-35.2225,77.04,74,74,8.75
Nador,MA,1633809041,35.174,-2.9287,70.05,73,0,6.91
Port Elizabeth,ZA,1633809042,-33.918,25.5701,59.09,72,0,14.61
Pisco,PE,1633809044,-13.7,-76.2167,67.01,72,0,11.5
Ningxiang,CN,1633809046,37.34,111.2052,40.6,57,93,8.9
Yar-Sale,RU,1633809047,66.8333,70.8333,28.62,82,15,15.86
Oddur,SO,1633809048,4.1213,43.8894,75.88,72,82,15.1
Ulladulla,AU,1633809050,-35.35,150.4667,61.7,90,100,11.16
Porto-Vecchio,FR,1633809051,41.591,9.2795,63.86,94,90,3.44
Almeria,ES,1633809052,37.1667,-2.3333,66.15,82,99,5.82
Bengkulu,ID,1633809054,-3.8004,102.2655,76.78,92,26,5.14
New Norfolk,AU,1633809055,-42.7826,147.0587,45.9,66,66,3.0
Shakawe,BW,1633809057,-18.3667,21.85,76.98,11,11,4.0
Portland,US,1633808428,45.5234,-122.6762,63.41,74,75,1.99
Boyabat,TR,1633809059,41.4689,34.7667,56.07,91,10,0.89
Bud,US,1633809061,39.447,-86.1758,83.84,61,21,10.11
Tahoua,NE,1633809062,14.8888,5.2692,89.58,23,0,0.0
Sangar,RU,1633809064,63.9242,127.4739,28.99,98,100,9.86
Vaini,TO,1633809066,-21.2,-175.2,71.76,94,40,1.14
Ganzhou,CN,1633809067,28.8184,115.4327,73.31,87,100,5.48
Mercedes,AR,1633809068,-34.6515,-59.4307,71.51,43,4,11.81
Leningradskiy,RU,1633808838,69.3833,178.4167,15.66,95,99,4.5
Stettler,CA,1633809072,52.3168,-112.7186,56.95,24,0,11.5
Ilovlya,RU,1633809073,49.3033,43.9796,42.1,58,100,4.59
Lima,PE,1633809018,-12.0432,-77.0282,64.13,72,90,8.05
Visby,SE,1633809076,57.6409,18.296,51.85,93,90,9.22
Mosquera,CO,1633808915,4.7059,-74.2302,64.49,72,40,13.8
Sahuaripa,MX,1633809078,29.05,-109.2333,96.87,19,0,4.61
Moranbah,AU,1633808972,-22.0016,148.0466,65.01,84,0,11.61
Avera,US,1633809081,33.194,-82.5271,80.38,64,42,9.73
Nabire,ID,1633809082,-3.3667,135.4833,76.89,92,100,2.26
Port Hedland,AU,1633809084,-20.3167,118.5667,64.45,88,0,6.91
Denpasar,ID,1633808874,-8.65,115.2167,78.46,88,40,8.05
Ribeira Grande,PT,1633809086,38.5167,-28.7,72.0,78,20,18.41
Esqueda,MX,1633809087,30.7167,-109.5833,86.63,20,0,18.45
Natchez,US,1633809089,31.5604,-91.4032,86.25,50,1,6.91
Soe,ID,1633809090,-9.8607,124.284,64.72,77,93,3.24
Hokitika,NZ,1633809091,-42.7167,170.9667,52.05,78,94,2.13
Port-Gentil,GA,1633809093,-0.7193,8.7815,78.76,89,75,11.5
Olinda,BR,1633809094,-8.0089,-34.8553,82.13,65,40,12.66
Mufulira,ZM,1633809095,-12.5498,28.2407,80.64,26,96,7.36
Muisne,EC,1633809097,0.6,-80.0333,80.71,76,88,8.25
Leh,IN,1633809098,34.1667,77.5833,45.63,31,0,2.73
Río Gallegos,AR,1633809096,-51.6226,-69.2181,71.65,20,75,28.77
Zliten,LY,1633809101,32.4674,14.5687,74.37,62,98,13.62
Dikson,RU,1633809103,73.5069,80.5464,30.22,61,100,24.67
Lavrentiya,RU,1633809104,65.5833,-171.0,29.66,81,74,9.8
Beşikdüzü,TR,1633809105,41.052,39.2284,64.29,88,0,5.21
Kamenka,RU,1633809106,51.3223,42.7678,42.31,63,50,6.02
Bredasdorp,ZA,1633808866,-34.5322,20.0403,50.29,84,0,0.83
Kindu,CD,1633808930,-2.95,25.95,69.98,92,97,2.71
Alugan,PH,1633809110,12.2188,125.4808,80.26,79,100,17.69
Tilichiki,RU,1633809112,60.4667,166.1,23.49,79,15,3.62
Ulaangom,MN,1633809114,49.9811,92.0667,33.01,58,0,3.11
Luau,AO,1633809115,-10.7073,22.2247,79.77,24,41,0.83
Vostok,RU,1633809116,46.4856,135.8833,42.6,94,100,5.79
Hofn,IS,1633809118,64.2539,-15.2082,47.97,82,100,4.27
Forbes,AU,1633809119,-33.3833,148.0167,62.92,85,79,2.53
Mahon,ES,1633809120,39.8885,4.2658,63.16,77,0,6.91
Sotuta,MX,1633809122,20.6,-89.0167,97.14,37,74,2.89
Marabá,BR,1633809123,-5.3686,-49.1178,95.18,46,20,3.44
Khāsh,IR,1633809099,28.2211,61.2158,62.53,26,0,5.1
Lagoa,PT,1633809127,39.05,-27.9833,69.57,77,100,19.28
Tarija,BO,1633809128,-21.5355,-64.7296,67.91,73,75,12.66
Altay,CN,1633809129,47.8667,88.1167,33.1,45,17,9.01
Lebu,CL,1633809131,-37.6167,-73.65,57.51,73,0,9.31
Tommot,RU,1633809132,58.9564,126.2925,25.72,95,16,3.09
Sault Ste. Marie,CA,1633809052,46.5168,-84.3333,68.56,90,90,4.61
Amberley,US,1633809134,39.2048,-84.428,82.06,59,20,1.99
Antalaha,MG,1633809136,-14.9003,50.2788,68.43,80,10,8.12
Caála,AO,1633809137,-12.8525,15.5606,72.03,34,51,4.7
Shimoda,JP,1633809138,34.6667,138.95,67.1,88,72,12.59
Vardø,NO,1633808963,70.3705,31.1107,38.93,94,100,7.9
Richards Bay,ZA,1633809141,-28.783,32.0377,68.0,77,99,17.43
Gizo Government Station,SB,1633809142,-8.103,156.8419,80.82,76,90,4.59
Ternate,ID,1633809143,0.8,127.4,81.34,80,100,3.89
Husavik,IS,1633809144,66.0449,-17.3389,40.91,98,100,10.02
Souillac,MU,1633809146,-20.5167,57.5167,73.78,78,75,18.41
Yellowknife,CA,1633808855,62.456,-114.3525,44.42,99,90,6.91
Ahipara,NZ,1633808892,-35.1667,173.1667,56.17,72,98,10.71
Cidreira,BR,1633809149,-30.1811,-50.2056,63.55,86,100,19.19
Arraial do Cabo,BR,1633809150,-22.9661,-42.0278,69.76,68,90,13.8
Manado,ID,1633809152,1.487,124.8455,77.77,88,40,1.14
Coyhaique,CL,1633809153,-45.5752,-72.0662,62.55,42,20,10.36
Talitsa,RU,1633809155,56.8804,60.0213,41.54,84,100,7.45
Cologne,DE,1633809156,50.9333,6.95,54.97,82,0,6.91
Trelew,AR,1633809157,-43.249,-65.3051,81.57,15,0,12.91
Benguela,AO,1633809160,-12.5763,13.4055,72.28,80,52,3.58
San Patricio,US,1633809010,28.017,-97.5169,90.01,43,0,12.33
Redlands,US,1633808521,34.0556,-117.1825,75.54,49,40,6.91
Churapcha,RU,1633809163,62.0025,132.4325,28.47,93,98,7.29
Menzel Salem,TN,1633809164,35.8567,8.4765,60.8,65,90,10.33
Peruíbe,BR,1633809166,-24.32,-46.9983,65.88,94,100,8.43
Ust'-Koksa,RU,1633809167,50.2696,85.6108,25.61,88,5,0.63
Wanning,CN,1633808967,18.8003,110.3967,77.92,87,100,11.63
Anadyr,RU,1633809169,64.75,177.4833,25.3,100,40,4.0
Gazojak,TM,1633809171,41.1875,61.4036,46.72,52,2,8.34
Mahébourg,MU,1633809174,-20.4081,57.7,73.69,78,75,18.41
Hanchuan,CN,1633809175,30.65,113.7667,64.51,86,100,11.43
Ascension,US,1633809177,30.2169,-90.9001,89.08,54,1,3.44
Yafran,LY,1633809179,32.0633,12.5286,63.03,74,58,8.25
Igrim,RU,1633809180,63.1906,64.4162,31.14,67,51,8.19
Fairlie,GB,1633809181,55.756,-4.8556,54.41,89,3,11.3
Mocuba,MZ,1633809184,-16.8392,36.9856,69.73,77,0,3.67
Ilulissat,GL,1633809185,69.2167,-51.1,22.89,73,100,5.3
Onega,RU,1633809186,63.9061,38.1404,40.82,95,100,5.53
Soubre,CI,1633809188,5.7856,-6.6083,74.46,97,19,3.47
Vanavara,RU,1633809189,60.34,102.2797,36.95,94,100,13.2
Cabo San Lucas,MX,1633809190,22.8909,-109.9124,100.51,63,6,4.0
Marawi,PH,1633809192,7.9986,124.2928,64.65,90,100,2.64
Asunción,PY,1633809167,-25.3007,-57.6359,74.64,94,90,6.91
Doha,QA,1633809119,25.2867,51.5333,91.38,42,0,11.5
Divnogorsk,RU,1633809195,55.9594,92.3619,45.09,87,100,11.27
Garden City,US,1633809112,42.3256,-83.331,78.93,63,75,9.22
Excelsior Springs,US,1633809197,39.3392,-94.2261,88.66,47,1,9.22
Kostrzyn,PL,1633809199,52.3985,17.2281,46.67,63,26,7.31
Bushehr,IR,1633809200,28.9684,50.8385,89.69,45,0,18.41
Ures,MX,1633809201,29.4333,-110.4,97.52,23,0,11.25
Makakilo City,US,1633809203,21.3469,-158.0858,77.32,75,90,5.75
Bhādāsar,IN,1633809204,28.2833,74.3167,86.88,31,0,8.08
Kundiawa,PG,1633809205,-6.0167,144.9667,63.0,97,96,1.66
Mount Isa,AU,1633809207,-20.7333,139.5,83.97,34,75,3.44
Comodoro Rivadavia,AR,1633809208,-45.8667,-67.5,75.06,33,0,8.05
Berezanka,UA,1633809209,46.8526,31.388,45.9,47,28,9.91
Jizan,SA,1633809211,17.3333,42.6667,86.94,64,2,3.02
Hay River,CA,1633809047,60.8156,-115.7999,44.58,81,90,5.75
Kulunda,RU,1633809213,52.566,78.9385,40.91,76,5,8.08
Tarabuco,BO,1633809214,-19.1667,-64.9167,60.71,57,99,11.23
Pak Phanang,TH,1633809216,8.3511,100.202,78.96,84,100,9.26
Nikki,BJ,1633809217,9.9401,3.2108,80.56,61,78,2.91
Erenhot,CN,1633809218,43.6475,111.9767,38.35,48,0,17.69
Kalmunai,LK,1633809220,7.4167,81.8167,80.78,72,100,4.27
West Fargo,US,1633808926,46.875,-96.9004,68.02,83,90,1.99
Isangel,VU,1633809222,-19.55,169.2667,68.11,88,29,3.44
Darhan,MN,1633809223,49.4867,105.9228,34.34,58,2,7.0
Daman,IN,1633809225,20.4167,72.85,80.71,82,100,4.92
Broome,US,1633809226,42.2506,-75.833,68.38,63,94,3.0
Egvekinot,RU,1633808946,66.3167,-179.1667,17.26,86,100,7.52
Gisborne,NZ,1633809228,-38.6533,178.0042,56.95,82,61,9.55
San Policarpo,PH,1633809230,12.1791,125.5072,80.58,78,100,18.7
Surami,GE,1633809232,42.0243,43.5556,43.16,86,5,8.16
Cockburn Town,TC,1633809233,21.4612,-71.1419,85.96,66,40,8.05
Havre-St-Pierre,CA,1633809235,50.2334,-63.5986,52.39,66,1,6.91
Nhamundá,BR,1633809236,-2.1861,-56.7131,95.02,36,100,3.65
Mazatlán,MX,1633809237,23.2167,-106.4167,92.91,74,22,1.99
Fayaoué,NC,1633809238,-20.65,166.5333,73.6,66,90,20.07
Singkang,MY,1633809240,2.1006,102.7994,78.69,92,89,0.18
Whitehorse,CA,1633808942,60.7161,-135.0538,43.57,56,75,11.99
Mogocha,RU,1633809243,53.7333,119.7667,28.45,86,67,4.27
Srednekolymsk,RU,1633809245,67.45,153.6833,6.84,96,43,4.25
Bourail,NC,1633809246,-21.5667,165.4833,69.6,64,0,4.23
Katsuura,JP,1633809247,35.1333,140.3,70.2,85,26,3.56
Buala,SB,1633809248,-8.145,159.5921,79.9,81,87,4.5
Liverpool,GB,1633809067,53.4106,-2.9779,60.69,88,75,1.01
Zuénoula,CI,1633809251,7.4292,-6.0431,74.97,90,5,3.8
Sechura,PE,1633809252,-5.5569,-80.8222,77.77,57,52,15.64
Prince Rupert,CA,1633809026,54.3161,-130.3201,48.29,79,90,4.61
Kopervik,NO,1633809255,59.2835,5.3067,57.34,82,75,16.11
Horsham,GB,1633809256,51.064,-0.3272,58.24,78,20,1.14
Badou,TG,1633809257,7.5833,0.6,75.25,91,100,3.02
Kawalu,ID,1633809258,-7.3817,108.2082,71.56,97,78,1.32
Bintulu,MY,1633809260,3.1667,113.0333,79.21,94,20,0.0
Nanortalik,GL,1633809261,60.1432,-45.2371,36.43,83,6,3.98
Kamaishi,JP,1633809262,39.2667,141.8833,62.83,88,94,11.1
Pulandian,CN,1633809264,39.3953,121.9669,62.73,87,100,14.65
Peniche,PT,1633809265,39.3558,-9.3811,65.62,91,23,9.4
Kaihua,CN,1633809266,23.3687,104.28,63.36,93,100,10.58
Rocha,UY,1633809266,-34.4833,-54.3333,62.13,66,2,10.92
Labuhan,ID,1633809268,-6.8844,112.2051,77.99,80,35,8.46
Bayamo,CU,1633809270,20.3792,-76.6433,84.24,71,99,6.06
Salinópolis,BR,1633809272,-0.6136,-47.3561,82.6,75,74,11.65
Zeya,RU,1633809273,53.75,127.2667,39.09,74,100,7.78
Tegul'det,RU,1633809275,57.3064,88.1667,36.88,86,100,6.85
Saint-François,FR,1633809276,46.4154,3.9054,53.04,94,90,1.14
Port-Cartier,CA,1633809018,50.0334,-66.8654,50.22,61,20,4.94
Redcar,GB,1633809278,54.6166,-1.06,60.53,84,100,5.01
Harper,LR,1633809280,4.375,-7.7169,76.91,89,30,6.49
Caucayá,CO,1633809177,-0.1934,-74.7819,85.17,67,98,3.36
Sungai Raya,ID,1633809071,0.7,108.9,79.16,87,86,6.31
Southern Pines,US,1633809283,35.174,-79.3923,72.59,94,90,4.61
Koshekhabl',RU,1633809285,44.8972,40.5119,50.36,63,100,14.83
Emba,KZ,1633809286,48.8264,58.1442,46.08,46,0,6.8
Longkou,CN,1633809287,37.6508,120.3286,65.25,86,100,16.84
Tsiroanomandidy,MG,1633809288,-18.7667,46.0333,73.72,48,97,5.12
Lompoc,US,1633809290,34.6391,-120.4579,79.7,48,1,18.41
De Aar,ZA,1633809291,-30.6497,24.0123,56.66,34,0,17.25
Bucerías,MX,1633809246,20.75,-105.3333,90.99,76,100,8.93
Nizhnyaya Tavda,RU,1633809294,57.6731,66.1725,36.16,78,83,6.26
Dolinsk,RU,1633809295,47.35,142.8,33.66,82,90,10.11
Abbeville,FR,1633809297,50.1,1.8333,55.49,80,29,3.89
Catuday,PH,1633809299,16.2923,119.8062,79.84,81,100,4.88
Karratha,AU,1633809300,-20.7377,116.8463,75.36,24,0,12.03
Zaporizhia,UA,1633809301,47.8167,35.1833,50.67,29,0,8.95
Flinders,AU,1633809304,-34.5833,150.8552,62.19,84,51,1.01
Sura,RU,1633809305,53.8879,45.7419,40.14,70,22,3.44
Verāval,IN,1633809306,20.9,70.3667,81.9,80,45,4.59
Angoche,MZ,1633809308,-16.2325,39.9086,75.6,73,0,14.07
Riyadh,SA,1633809241,24.6877,46.7219,80.74,16,0,7.72
Pathein,MM,1633809310,16.7833,94.7333,76.64,92,82,3.04
Faanui,PF,1633809311,-16.4833,-151.75,78.03,71,14,5.3
Fukuechō,JP,1633809313,32.6881,128.8419,77.45,77,0,7.83
Mufumbwe,ZM,1633809314,-13.6833,24.8,74.03,33,21,4.65
Weihe,CN,1633809315,32.9952,105.3247,44.15,93,100,8.61
Skibbereen,IE,1633809317,51.55,-9.2667,57.0,89,0,6.17
Muli,MV,1633809318,2.9167,73.5667,83.01,76,100,12.91
Dalmatovo,RU,1633809319,56.26,62.9362,39.52,86,100,6.62
Shcherbinka,RU,1633809320,55.4997,37.5597,41.14,82,29,2.24
Broken Hill,AU,1633809322,-31.95,141.4333,56.91,94,75,0.0
Cleethorpes,GB,1633809323,53.5605,-0.0323,59.99,75,100,4.79
Enshi,CN,1633809324,30.3,109.4833,68.61,97,100,4.81
Nianzishan,CN,1633809326,47.5167,122.8833,44.65,56,7,21.27
Ossora,RU,1633809327,59.2353,163.0719,31.24,63,26,3.58
Mgandu,TZ,1633809328,-5.95,34.1333,73.42,38,98,9.53
Gravelbourg,CA,1633809330,49.8834,-106.5512,61.07,41,10,5.57
Port Macquarie,AU,1633809331,-31.4333,152.9167,56.89,92,45,9.04
Jérémie,HT,1633809332,18.65,-74.1167,84.42,74,24,4.5
Port Blair,IN,1633809333,11.6667,92.75,79.16,85,100,18.01
Waipawa,NZ,1633809335,-41.4122,175.5153,52.45,79,79,12.39
Kloulklubed,PW,1633809336,7.0419,134.2556,82.72,79,68,21.41
Akot,IN,1633809337,21.0964,77.0586,75.76,65,4,4.76
Lázaro Cárdenas,MX,1633809340,17.9583,-102.2,86.5,68,38,7.45
Artyom,AZ,1633809341,40.4723,50.333,59.14,57,4,9.95
Goderich,CA,1633809342,43.7501,-81.7165,71.2,94,20,5.75
Romuli,RO,1633809344,47.5333,24.4333,35.49,66,91,5.57
Keti Bandar,PK,1633809345,24.1447,67.4497,80.44,75,0,10.69
Mendi,PG,1633809346,-6.1761,143.6513,56.79,98,100,1.9
Port Hawkesbury,CA,1633809347,45.6169,-61.3485,55.89,63,90,4.0
Hakkâri Province,TR,1633809349,37.5833,44.1667,45.39,60,0,3.44
Krasnosel'kup,RU,1633809063,65.7,82.4667,26.01,73,100,16.17
Northfield,US,1633809351,44.4583,-93.1616,80.33,54,1,5.01
Ploemeur,FR,1633809352,47.7333,-3.4333,61.83,89,0,6.91
Birao,CF,1633809354,10.2849,22.7882,79.57,39,60,3.11
Palau,PW,1633809355,7.503,134.621,81.27,79,99,17.45
Samashki,RU,1633809356,43.2906,45.3014,49.75,78,100,2.46
Alvinópolis,BR,1633809358,-20.1067,-43.0489,69.13,79,100,5.82
Nguruka,TZ,1633809359,-5.1092,31.0419,78.12,41,19,4.34
Shīeli,KZ,1633809360,44.1667,66.75,47.79,38,100,7.18
Sacama,EC,1633809362,-3.9,-79.2667,68.02,39,75,9.22
Yangambi,CD,1633809363,0.8102,24.4336,72.88,88,100,1.86
Biała Podlaska,PL,1633809365,52.0324,23.1165,42.64,64,46,6.85
Jilib,SO,1633809366,0.4883,42.7854,76.39,81,25,9.46
Tucumã,BR,1633809367,-0.1833,-50.05,87.15,63,100,11.99
São Félix do Xingu,BR,1633809368,-6.6447,-51.995,95.02,30,90,2.62
Nichinan,JP,1633809370,31.6,131.3667,75.76,81,100,12.12
Zhangye,CN,1633809373,38.9342,100.4517,38.44,27,1,3.51
Rio Verde de Mato Grosso,BR,1633809375,-18.9181,-54.8442,97.36,29,83,10.96
Port Augusta,AU,1633809376,-32.5,137.7667,55.54,75,100,16.04
Nemuro,JP,1633809377,43.3236,145.575,56.39,91,40,16.2
Batemans Bay,AU,1633809378,-35.7167,150.1833,58.91,85,100,9.28
Porbandar,IN,1633809380,21.6422,69.6093,82.49,80,79,4.81
Barstow,US,1633809382,34.8986,-117.0228,73.49,30,0,6.58
Touros,BR,1633809383,-5.1989,-35.4608,85.1,75,67,15.84
Prachuap Khiri Khan,TH,1633809247,12.2167,99.75,81.68,87,100,5.93
Kuching,MY,1633809386,1.55,110.3333,80.82,89,40,3.44
Batticaloa,LK,1633809387,7.7102,81.6924,80.19,71,100,5.41
Ajdabiya,LY,1633809388,30.7554,20.2263,79.0,28,0,9.93
Mitsamiouli,KM,1633809390,-11.3847,43.2844,76.55,82,6,9.93
Adrar,MR,1633809391,20.5022,-10.0711,90.57,12,70,12.39
Chadan,RU,1633809392,51.2833,91.5833,31.14,71,7,3.69
Puerto Escondido,MX,1633809366,15.85,-97.0667,83.95,77,100,6.26
Bereda,ES,1633809395,43.2686,-7.5406,59.92,99,100,7.87
The Valley,AI,1633809252,18.217,-63.0578,87.94,58,20,16.11
Dillon,US,1633809244,34.4166,-79.3712,75.36,68,100,13.35
Gimbi,ET,1633809398,9.1667,35.8333,56.79,97,100,1.48
Chapais,CA,1633809400,49.7834,-74.8492,69.58,57,56,10.51
Ancud,CL,1633809401,-41.8697,-73.8203,63.93,74,1,8.19
Nefteyugansk,RU,1633809402,61.0998,72.6035,32.25,78,45,10.49
Opuwo,NA,1633809403,-18.0607,13.84,78.62,16,0,5.64
Dauphin,CA,1633809405,51.1494,-100.0502,53.74,66,1,3.44
Lakes Entrance,AU,1633809406,-37.8811,147.981,52.57,90,100,10.31
Palu,ID,1633809189,-0.8917,119.8707,76.05,94,100,2.19
Russell,US,1633809409,32.3502,-85.1999,83.05,59,56,6.31
Tromsø,NO,1633809410,69.6496,18.957,46.42,93,75,6.91
Saint-Joseph,RE,1633809412,-21.3667,55.6167,71.98,81,40,14.34
Yebaishou,CN,1633809414,41.3975,119.6408,46.17,47,34,13.78
Vestmannaeyjar,IS,1633809415,63.4427,-20.2734,46.09,80,100,8.59
Nouadhibou,MR,1633809416,20.931,-17.0347,71.87,75,100,24.09
Bukama,CD,1633809417,-9.2,25.85,81.61,26,6,3.49
Izumo,JP,1633809419,35.3667,132.7667,67.95,83,0,5.46
Mthatha,ZA,1633809421,-31.5889,28.7844,54.16,71,0,2.3
Mehamn,NO,1633809422,71.0357,27.8492,37.45,97,100,6.04
Mayo,US,1633809424,38.8876,-76.5119,73.96,75,100,13.0
Upernavik,GL,1633809425,72.7868,-56.1549,29.62,53,98,10.96
Provideniya,RU,1633809426,64.3833,-173.3,29.19,80,28,5.39
La Asuncion,VE,1633809300,11.0333,-63.8628,83.97,71,52,9.93
Marsala,IT,1633809429,37.7966,12.4352,66.0,71,24,9.15
Kerekegyháza,HU,1633809430,46.9372,19.4781,51.46,45,100,4.76
Carora,VE,1633809432,10.1755,-70.0827,90.32,43,94,1.12
Ciudad Bolivar,VE,1633809434,8.1222,-63.5497,88.59,56,100,1.1
Karasjok,NO,1633809435,69.4719,25.5112,35.71,99,100,5.64
Sosnovoborsk,RU,1633809436,56.1325,93.3589,45.95,81,100,13.13
Ust-Maya,RU,1633809438,60.4167,134.5333,28.53,97,83,3.96
Jaca,ES,1633809439,42.569,-0.5499,55.6,79,0,3.53
Sembakung,ID,1633809440,3.8167,117.25,73.29,93,97,1.59
Nuristan,AF,1633809441,35.3,70.8333,37.53,55,67,2.28
Philadelphia,US,1633809152,39.9523,-75.1638,71.74,74,90,5.99
Luanda,AO,1633809444,-8.8368,13.2343,75.2,78,40,11.5
Praia,CV,1633809445,14.9215,-23.5087,82.94,69,20,14.97
Great Falls,US,1633809219,47.5002,-111.3008,63.93,27,1,8.99
Itarema,BR,1633809449,-2.9248,-39.9167,81.68,71,97,19.26
Narkevychi,UA,1633809450,49.5172,26.6418,38.23,48,3,7.45
Parakan,ID,1633809451,-6.4191,106.0081,81.45,91,2,1.77
Pucara,PE,1633809453,-15.9803,-71.4606,50.13,47,58,13.18
Diego de Almagro,CL,1633809454,-26.3667,-70.05,72.81,14,0,11.86
Agadir,MA,1633809455,30.4202,-9.5982,66.65,78,73,6.51
Talara,PE,1633809456,-4.5772,-81.2719,75.96,69,0,12.66
Ibaiti,BR,1633809458,-23.8486,-50.1878,60.26,91,100,7.34
Ponta Delgada,PT,1633809459,37.7333,-25.6667,70.52,88,40,12.66
Half Moon Bay,US,1633809460,37.4636,-122.4286,72.59,56,0,8.93
Linguère,SN,1633809462,15.3953,-15.1193,89.82,66,0,4.61
Bereket,TM,1633809463,39.2446,55.5154,51.76,21,0,6.62
Alice Springs,AU,1633809167,-23.7,133.8833,67.55,45,90,8.05
Bar Harbor,US,1633809465,44.3876,-68.2039,59.67,66,10,4.0
Rio Grande,BR,1633809467,-32.035,-52.0986,66.31,72,99,16.26
Châteauroux,FR,1633809468,46.8167,1.7,51.8,82,0,6.91
Turan,VN,1633809469,16.0678,108.2208,80.65,94,40,3.44
Homer,US,1633809471,59.6425,-151.5483,45.09,88,100,24.0
Codrington,AU,1633809375,-38.2667,141.9667,47.17,57,53,9.04
Qaraçala,AZ,1633809473,39.8132,48.9523,58.08,62,45,5.68
Westport,US,1633809474,41.1415,-73.3579,68.79,73,100,1.01
Bull Savanna,JM,1633809475,17.8868,-77.5902,83.95,66,17,10.42
Caçu,BR,1633809477,-18.5567,-51.1308,88.99,39,90,4.52
Mahibadhoo,MV,1633809478,3.7833,72.9667,83.32,75,100,12.01
Huilong,CN,1633809319,31.8111,121.655,80.04,92,0,8.23
Bowen,AU,1633809482,-20.0167,148.2333,64.62,74,6,14.2
Birjand,IR,1633809483,32.8663,59.2211,57.67,30,0,9.22
Talas,TR,1633809484,38.6908,35.5538,48.87,43,0,4.61
Strezhevoy,RU,1633809487,60.7333,77.5889,33.78,75,98,11.81
Ilo,PE,1633809488,-17.6394,-71.3375,63.46,82,90,12.66
Jardim,BR,1633809489,-21.4803,-56.1381,83.12,69,83,3.24
Tokur,RU,1633809320,53.1333,132.9,32.2,100,100,3.62
Mbanza-Ngungu,CD,1633809492,-5.25,14.8667,76.84,73,91,2.77
Gordeyevka,RU,1633809493,52.9569,31.9703,39.63,72,0,4.0
El Seibo,DO,1633809494,18.7641,-69.0375,90.52,55,5,8.9
Koslan,RU,1633809497,63.4564,48.8989,32.05,75,87,0.94
Murmashi,RU,1633809498,68.8154,32.8115,37.81,93,75,2.24
Tigzirt,DZ,1633809499,36.8886,4.1198,67.23,66,0,5.14
Oxapampa,PE,1633809501,-10.5775,-75.4017,68.67,84,96,2.75
Billings Metropolitan Area,US,1633809274,45.7833,-108.5007,62.51,75,100,7.0
Fairbanks,US,1633809503,64.8378,-147.7164,36.91,92,90,0.0
Viedma,AR,1633809504,-40.8135,-62.9967,80.87,19,0,11.41
Shelburne,CA,1633809506,44.0787,-80.2041,66.6,93,100,11.43
Khairpur Nathan Shah,PK,1633809507,27.0936,67.7337,88.86,21,0,7.7
Ritchie,ZA,1633809508,-29.038,24.6028,60.01,24,19,14.18
San Simón de la Laguna,MX,1633809461,19.3,-100.0833,64.58,67,76,4.94
Olafsvik,IS,1633809511,64.8945,-23.7142,41.85,86,87,18.32
Anloga,GH,1633809512,5.7947,0.8973,82.62,83,81,12.86
Kumul,CN,1633809513,42.8,93.45,43.21,36,0,4.88
Shintomi,JP,1633809514,32.0785,131.4723,73.33,85,100,9.26
Asău,RO,1633809516,46.4333,26.4,42.28,68,23,4.9
Moyale,KE,1633809517,3.5167,39.0584,76.53,52,98,7.02
Oriximiná,BR,1633809518,-1.7656,-55.8661,95.13,36,60,2.62
Lieksa,FI,1633809520,63.3167,30.0167,51.03,89,100,10.0
Mnogovershinnyy,RU,1633809521,53.9353,139.9242,36.75,61,100,2.24
Idah,NG,1633809522,7.1065,6.7342,75.85,95,100,4.68
Alyangula,AU,1633809476,-13.8483,136.4192,71.47,94,50,3.44
Abu Dhabi,AE,1633809526,24.4667,54.3667,89.62,84,0,3.44
Laas,IT,1633809527,46.6166,10.7002,45.36,83,2,2.53
Taltal,CL,1633809528,-25.4,-70.4833,62.62,59,22,6.64
Kuandian,CN,1633809530,40.7286,124.7847,59.56,92,100,8.41
Abu Samrah,SY,1633809531,35.3029,37.1841,74.53,22,0,5.12
Vila Velha,BR,1633809409,-20.3297,-40.2925,71.55,73,75,4.61
Lexington,US,1633809533,37.9887,-84.4777,80.98,58,4,1.01
Mongu,ZM,1633809535,-15.2484,23.1274,86.41,18,99,3.47
Airai,TL,1633809536,-8.9266,125.4092,58.57,58,94,1.63
Sri Aman,MY,1633809537,1.2376,111.4621,78.85,94,75,0.0
Nesterov,RU,1633809538,54.6306,22.5714,42.57,66,84,4.36
Itaperuçu,BR,1633809540,-25.22,-49.3478,59.79,99,100,2.66
Somerset,US,1633809510,40.5668,-74.5496,69.76,78,90,1.99
Liwale,TZ,1633809542,-9.7667,37.9333,69.78,67,5,5.14
Bariloche,AR,1633809312,-41.1456,-71.3082,73.15,15,0,6.91
Port Jervis,US,1633809546,41.3751,-74.6927,66.27,71,100,9.01
Hasaki,JP,1633809382,35.7333,140.8333,66.6,83,10,5.17
Atambua,ID,1633809548,-9.1061,124.8925,71.53,83,43,3.47
Barcelona,ES,1633809445,41.3888,2.159,67.53,82,75,2.3
Yinchuan,CN,1633809550,38.4681,106.2731,47.03,31,100,3.87
Karlstad,SE,1633809552,59.3793,13.5036,52.36,82,90,13.8
Torrington,US,1633809553,41.8007,-73.1212,64.35,85,100,1.01
Abrau-Dyurso,RU,1633809554,44.69,37.59,51.26,66,100,7.49
Chara,RU,1633809556,56.9064,118.2631,29.44,63,9,1.81
Yurty,RU,1633809558,56.0498,97.6348,44.31,67,100,17.81
Paraty,BR,1633809559,-23.2178,-44.7131,76.1,94,100,4.16
Tyup,KG,1633809561,42.7276,78.3648,41.52,68,99,5.53
Kurayoshi,JP,1633809562,35.4333,133.8167,67.82,79,4,9.4
Pangnirtung,CA,1633809563,66.1451,-65.7125,35.6,100,90,2.3
Tiznit Province,MA,1633809564,29.5833,-9.5,68.83,63,8,1.83
Berlevåg,NO,1633809566,70.8578,29.0864,37.38,95,100,6.69
Baker City,US,1633809567,44.7749,-117.8344,57.94,42,100,8.5
Esterhazy,CA,1633809568,50.65,-102.0843,61.65,38,100,4.9
Tema,GH,1633809570,5.667,-0.0166,82.81,83,75,12.66
Avdon,RU,1633809571,54.6667,55.7167,43.92,65,75,6.71
Monrovia,LR,1633809572,6.3005,-10.7969,80.37,85,97,9.51
Junction City,US,1633809290,39.0286,-96.8314,90.61,36,1,10.0
Lesnoy,RU,1633809575,57.6198,63.0784,34.59,89,78,5.55
Whyalla,AU,1633809576,-33.0333,137.5833,55.29,67,100,16.11
Virginia Beach,US,1633809560,36.8529,-75.978,73.42,86,100,1.01
Yamoussoukro,CI,1633809578,6.8206,-5.2767,80.49,88,20,0.0
Hambantota,LK,1633809490,6.1241,81.1185,80.2,83,100,17.76
Villamontes,BO,1633809582,-21.25,-63.5,73.11,80,100,4.7
Mount Gambier,AU,1633809583,-37.8333,140.7667,39.11,93,40,3.44
Kalabo,ZM,1633809584,-14.97,22.6814,85.71,20,89,3.36
Kot Diji,PK,1633809586,27.3427,68.7083,80.62,33,0,8.59
Matagami,CA,1633809588,49.7502,-77.6328,69.91,56,75,11.5
Shestakovo,RU,1633809589,56.4915,103.96,41.43,77,100,14.47
Grand Gaube,MU,1633809591,-20.0064,57.6608,73.8,73,1,8.99
Cap-aux-Meules,CA,1633809592,47.3821,-61.8597,53.65,66,20,11.5
Raseiniai,LT,1633809593,55.3736,23.1217,43.25,64,94,3.22
Maunabo,PR,1633809528,18.0072,-65.8993,92.05,77,4,12.37
Vila do Maio,CV,1633809596,15.1333,-23.2167,83.19,79,0,11.01
Hastings,GB,1633809597,50.8552,0.5729,57.52,94,1,7.7
Kysyl-Syr,RU,1633809598,63.8986,122.7617,33.66,97,100,11.32
